City_ID,City,Lat,Lng,Max Temp,Humidity,Cloudiness,Wind Speed,Country,Date
0,adamstown,-25.066,-130.1015,298.3,87,4,5.79,PN,1682426810
1,west island,-12.1568,96.8225,300.14,78,75,7.72,CC,1682426555
2,udachny,66.4167,112.4,266.41,93,100,5.1,RU,1682426810
3,narail,23.1667,89.5,305.81,29,28,1.03,BD,1682426810
4,ushuaia,-54.8,-68.3,277.96,81,75,11.32,AR,1682426811
5,alesund,62.4723,6.1549,278.76,69,40,6.17,NO,1682426531
6,higuera de zaragoza,25.95,-109.2833,291.27,86,20,3.13,MX,1682426811
7,eleskirt,39.8033,42.6736,287.07,44,33,4.24,TR,1682426811
8,talnakh,69.4865,88.3972,275.49,88,50,2.64,RU,1682426811
9,bhalki,18.0333,77.2167,308.37,22,9,0.34,IN,1682426812
10,waitangi,-43.9535,-176.5597,287.49,83,89,4.92,NZ,1682426812
11,kattivakkam,13.2167,80.3167,304.2,86,6,5.29,IN,1682426813
12,hobyo,5.3505,48.5268,303.5,65,99,5.03,SO,1682426813
13,remire-montjoly,4.9167,-52.2667,298.17,94,75,1.03,GF,1682426813
14,kataba,13.9833,44.3833,291.64,60,98,2.27,YE,1682426814
15,grytviken,-54.2811,-36.5092,275.77,98,100,2.82,GS,1682426814
16,port-aux-francais,-49.35,70.2167,277.41,75,10,7.89,TF,1682426814
17,longyearbyen,78.2186,15.6401,268.06,68,0,2.06,SJ,1682426814
18,wailua homesteads,22.0669,-159.378,294.39,86,75,3.6,US,1682426814
19,umba,66.6871,34.3429,274.14,72,28,1.82,RU,1682426814
20,punta arenas,-53.15,-70.9167,278.21,81,20,10.29,CL,1682426814
21,uturoa,-16.7333,-151.4333,299.97,82,100,5.19,PF,1682426815
22,barentu,15.1139,37.5928,309.74,14,28,6.37,ER,1682426815
23,juneau,58.3019,-134.4197,275.15,97,100,2.57,US,1682426815
24,hermanus,-34.4187,19.2345,294.71,68,70,2.74,ZA,1682426815
25,luderitz,-26.6481,15.1594,295.93,61,0,8.15,NA,1682426816
26,stanley,54.868,-1.6985,283.31,50,40,2.57,GB,1682426816
27,kodiak,57.79,-152.4072,273.88,86,100,0.0,US,1682426816
28,port lincoln,-34.7333,135.8667,293.3,61,78,5.08,AU,1682426816
29,hawaiian paradise park,19.5933,-154.9731,294.28,94,100,2.57,US,1682426816
30,daru,-9.0763,143.2092,300.13,87,100,5.68,PG,1682426816
31,yellowknife,62.456,-114.3525,273.46,93,75,5.66,CA,1682426602
32,pingzhuang,42.0372,119.2889,278.26,37,0,4.05,CN,1682426817
33,sao joao da barra,-21.6403,-41.0511,297.2,72,89,1.1,BR,1682426817
34,arraial do cabo,-22.9661,-42.0278,298.07,78,20,2.06,BR,1682426817
35,nagqu,31.5,92.0,270.01,79,100,2.09,CN,1682426817
36,puerto natales,-51.7236,-72.4875,278.4,75,20,4.63,CL,1682426817
37,blackmans bay,-43.0167,147.3167,286.22,82,0,2.68,AU,1682426817
38,korla,41.7597,86.1469,293.69,20,12,3.27,CN,1682426741
39,flying fish cove,-10.4217,105.6791,300.32,78,13,4.58,CX,1682426744
40,edinburgh of the seven seas,-37.0676,-12.3116,288.89,69,59,11.25,SH,1682426818
41,kara-balta,42.8142,73.8481,289.24,53,81,3.63,KG,1682426804
42,bredasdorp,-34.5322,20.0403,294.79,50,41,0.45,ZA,1682426818
43,tura,25.5198,90.2201,297.94,43,7,0.77,IN,1682426818
44,tofol,5.3248,163.0078,300.9,79,88,6.81,FM,1682426819
45,alice springs,-23.7,133.8833,289.9,63,0,3.96,AU,1682426819
46,namibe,-15.1961,12.1522,300.11,61,15,3.57,AO,1682426820
47,olonkinbyen,70.9221,-8.7187,269.67,73,92,6.36,SJ,1682426822
48,new norfolk,-42.7826,147.0587,286.87,91,0,1.63,AU,1682426826
49,puerto el triunfo,13.2833,-88.55,300.55,75,97,1.51,SV,1682426828
50,qui nhon,13.7667,109.2333,299.12,89,66,3.07,VN,1682426731
51,choibalsan,48.0667,114.5,279.83,18,100,4.56,MN,1682426835
52,albany,42.6001,-73.9662,279.62,75,27,2.44,US,1682426836
53,buala,-8.145,159.5921,300.03,83,37,2.28,SB,1682426836
54,mata-utu,-13.2816,-176.1745,301.66,73,95,1.51,WF,1682426837
55,bethel,41.3712,-73.414,283.98,65,0,0.89,US,1682426837
56,qaqortoq,60.7167,-46.0333,274.62,89,100,1.05,GL,1682426837
57,margaret river,-33.95,115.0667,287.87,77,100,10.27,AU,1682426838
58,invercargill,-46.4,168.35,281.55,78,96,7.46,NZ,1682426700
59,vilyuchinsk,52.9306,158.4028,275.3,80,37,4.24,RU,1682426839
60,hamilton,39.1834,-84.5333,279.26,71,40,3.09,US,1682426315
61,mount pleasant,32.7941,-79.8626,292.14,72,0,5.14,US,1682426804
62,mugia,43.1041,-9.2179,291.57,94,100,7.03,ES,1682426839
63,praia da vitoria,38.7333,-27.0667,293.29,73,40,6.39,PT,1682426839
64,adel,31.1371,-83.4235,290.36,75,17,0.89,US,1682426840
65,ilulissat,69.2167,-51.1,274.16,75,75,2.57,GL,1682426840
66,sola,-13.8833,167.55,300.44,76,62,4.63,VU,1682426841
67,port elizabeth,-33.918,25.5701,295.31,77,0,3.09,ZA,1682426841
68,puerto ayora,-0.7393,-90.3518,296.79,96,4,1.47,EC,1682426841
69,hithadhoo,-0.6,73.0833,301.66,75,99,4.0,MV,1682426841
70,adra,36.7496,-3.0206,304.47,47,13,2.72,ES,1682426841
71,geraldton,-28.7667,114.6,289.38,82,75,2.57,AU,1682426841
72,saint-pierre,-21.3393,55.4781,299.97,74,51,1.54,RE,1682426841
73,laguna,38.421,-121.4238,287.22,86,0,2.57,US,1682426842
74,manacapuru,-3.2997,-60.6206,298.74,91,52,1.35,BR,1682426842
75,saynshand,44.8824,110.1163,281.35,16,100,6.11,MN,1682426822
76,al kharijah,25.4514,30.5464,306.77,9,89,8.13,EG,1682426755
77,paraparaumu,-40.9167,175.0167,289.51,80,100,9.56,NZ,1682426763
78,salalah,17.0151,54.0924,305.2,62,20,7.72,OM,1682426670
79,ancud,-41.8697,-73.8203,284.55,98,100,3.47,CL,1682426619
80,san antonio de pale,-1.4014,5.6325,301.71,71,99,1.11,GQ,1682426843
81,kotel'nikovo,47.6317,43.1461,289.2,60,74,8.48,RU,1682426646
82,whitehorse,60.7161,-135.0538,269.58,79,20,2.06,CA,1682426843
83,minas de marcona,-15.2119,-75.1103,291.26,76,23,4.05,PE,1682426793
84,anadyr,64.75,177.4833,261.43,72,0,4.0,RU,1682426638
85,iqaluit,63.7506,-68.5145,271.0,100,100,1.03,CA,1682426843
86,nieuw amsterdam,5.8833,-55.0833,302.6,78,40,1.03,SR,1682426844
87,lihue,21.9789,-159.3672,294.73,86,75,3.6,US,1682426739
88,shar'ya,58.3686,45.5144,289.88,49,100,2.96,RU,1682426844
89,vizinga,61.0749,50.1031,293.08,36,54,2.91,RU,1682426845
90,qarauyl,48.9451,79.255,283.87,41,6,2.95,KZ,1682426845
91,talodi,10.6325,30.3797,311.04,23,99,3.73,SD,1682426845
92,tiksi,71.6872,128.8694,260.78,100,100,1.96,RU,1682426845
93,iskateley,67.6803,53.1512,272.52,87,14,6.42,RU,1682426846
94,lompoc,34.6391,-120.4579,282.88,81,100,7.15,US,1682426846
95,port augusta,-32.5,137.7667,294.76,41,100,3.33,AU,1682426801
96,petropavlovsk-kamchatsky,53.0452,158.6483,274.48,60,75,3.0,RU,1682426847
97,papatowai,-46.5619,169.4708,282.94,77,87,8.75,NZ,1682426847
98,mercedes,-34.6515,-59.4307,290.9,79,100,1.39,AR,1682426847
99,liuli,-11.0833,34.6333,299.07,79,28,4.93,TZ,1682426847
100,annaba,36.9,7.7667,297.13,43,0,4.12,DZ,1682426847
101,champerico,14.3,-91.9167,297.45,70,100,4.62,GT,1682426848
102,majene,-3.5403,118.9707,299.77,84,100,1.35,ID,1682426848
103,jamestown,42.097,-79.2353,278.16,90,100,2.06,US,1682426575
104,port mathurin,-19.6833,63.4167,299.4,79,93,8.12,MU,1682426850
105,constantia,44.1833,28.65,290.76,77,100,8.5,RO,1682426850
106,hsinchu,24.8036,120.9686,294.74,94,100,1.79,TW,1682426836
107,ribeira grande,38.5167,-28.7,291.91,88,20,4.47,PT,1682426850
108,veraval,20.9,70.3667,302.13,63,100,6.54,IN,1682426836
109,abbeville,50.1,1.8333,285.09,61,92,4.46,FR,1682426850
110,zachary,30.6485,-91.1565,287.45,84,0,0.0,US,1682426851
111,bueng kan,18.363,103.6519,297.59,75,53,3.49,TH,1682426681
112,torghay,49.6339,63.4981,294.98,25,3,3.08,KZ,1682426851
113,ryotsu-minato,38.0833,138.4333,285.78,73,100,4.34,JP,1682426851
114,weno,7.4515,151.8468,299.12,94,100,1.54,FM,1682426851
115,mahalapye,-23.1041,26.8142,304.93,23,12,2.06,BW,1682426851
116,saipan,15.1355,145.701,300.54,100,40,7.72,MP,1682426782
117,cabedelo,-6.9811,-34.8339,298.52,77,97,4.85,BR,1682426599
118,bilibino,68.0546,166.4372,258.25,78,94,1.88,RU,1682426852
119,chamzinka,54.4019,45.7839,284.21,93,100,7.51,RU,1682426852
120,isafjordur,66.0755,-23.124,273.17,55,40,7.72,IS,1682426853
121,sesimbra,38.4445,-9.1015,299.99,57,17,4.22,PT,1682426853
122,kushiro,42.975,144.3747,277.73,79,100,3.22,JP,1682426817
123,mount gambier,-37.8333,140.7667,288.84,67,85,2.49,AU,1682426854
124,menongue,-14.6585,17.691,304.2,27,16,3.31,AO,1682426855
125,hadibu,12.65,54.0333,302.59,61,100,1.08,YE,1682426855
126,vikulovo,56.8167,70.6107,291.43,41,2,4.85,RU,1682426855
127,vorgashor,67.5833,63.95,267.54,91,6,3.44,RU,1682426587
128,porto,41.1496,-8.611,295.09,69,20,3.13,PT,1682426855
129,kapuskasing,49.4169,-82.4331,270.2,93,100,5.14,CA,1682426856
130,sitka,57.0531,-135.33,275.09,87,75,3.09,US,1682426856
131,nova sintra,14.8667,-24.7167,293.18,76,0,7.97,CV,1682426856
132,fort bragg,35.139,-79.006,285.83,85,0,1.79,US,1682426856
133,thompson,55.7435,-97.8558,268.24,68,20,1.54,CA,1682426856
134,la passe,45.5549,-0.8967,288.28,88,100,2.46,FR,1682426856
135,mbekenyera,-10.0,38.9833,300.93,75,100,2.84,TZ,1682426857
136,kingston,17.997,-76.7936,300.68,76,20,1.54,JM,1682426857
137,chonchi,-42.6128,-73.8092,284.71,99,100,0.03,CL,1682426857
138,bembereke,10.2283,2.6634,311.69,22,68,1.16,BJ,1682426857
139,gizo,-8.103,156.8419,301.12,76,100,1.74,SB,1682426857
140,tralee,52.2704,-9.7026,284.29,50,75,6.17,IE,1682426858
141,nar'yan-mar,67.6713,53.087,272.57,87,13,6.42,RU,1682426858
142,kirishi,59.4471,32.0205,292.82,29,91,4.28,RU,1682426603
143,galle,6.0367,80.217,300.98,76,100,1.13,LK,1682426635
144,klyuchi,52.2667,79.1667,283.47,48,45,3.09,RU,1682426858
145,kolwezi,-10.7148,25.4667,298.04,55,66,2.7,CD,1682426831
146,granville,-33.8333,151.0167,291.5,86,0,0.99,AU,1682426858
147,ust-nera,64.5667,143.2,262.25,99,72,1.48,RU,1682426858
148,igarka,67.4667,86.5833,273.99,99,100,1.95,RU,1682426859
149,lebu,-37.6167,-73.65,284.8,79,100,0.32,CL,1682426836
150,papao,-17.75,-149.55,298.97,87,100,7.74,PF,1682426859
151,waingapu,-9.6567,120.2641,299.24,87,69,4.37,ID,1682426859
152,port macquarie,-31.4333,152.9167,288.65,70,76,0.25,AU,1682426570
153,ghat,24.9647,10.1728,306.19,13,93,4.17,LY,1682426859
154,port alfred,-33.5906,26.891,295.47,81,90,1.34,ZA,1682426860
155,olyokminsk,60.3736,120.4264,270.16,91,100,1.06,RU,1682426860
156,inhambane,-23.865,35.3833,303.15,58,20,5.36,MZ,1682426860
157,tianpeng,30.9866,103.9393,292.41,57,99,2.53,CN,1682426740
158,pangai,-19.8,-174.35,298.21,78,20,0.0,TO,1682426861
159,thunder bay,48.4001,-89.3168,273.14,74,100,0.0,CA,1682426821
160,zhanaozen,43.3,52.8,300.32,20,100,5.98,KZ,1682426754
161,ambovombe,-25.1667,46.0833,296.58,64,80,5.09,MG,1682426861
162,lumding railway colony,25.749,93.17,295.15,79,50,0.84,IN,1682426861
163,st. john's,47.5649,-52.7093,276.3,95,100,8.49,CA,1682426862
164,hasaki,35.7333,140.8333,288.83,60,100,7.86,JP,1682426767
165,atar,20.5169,-13.0499,308.18,21,0,2.06,MR,1682426862
166,fisterra,42.9049,-9.2629,291.49,93,100,6.27,ES,1682426862
167,lospalos,-8.5186,127.0025,295.85,96,100,2.31,TL,1682426862
168,taoudenni,22.6783,-3.9836,311.04,6,0,5.93,ML,1682426862
169,stephenville,32.2207,-98.2023,287.45,94,100,2.06,US,1682426863
170,pont rouge,48.8833,-72.0825,276.21,90,100,4.19,CA,1682426863
171,shiwan,22.9969,113.0799,291.97,65,96,5.87,CN,1682426747
172,lodja,-3.4833,23.4333,307.72,35,43,1.12,CD,1682426863
173,kupang,-10.1667,123.5833,301.47,83,75,2.57,ID,1682426782
174,mossel bay,-34.1831,22.146,293.11,69,33,3.53,ZA,1682426768
175,enewetak,11.3474,162.3373,299.19,83,100,5.91,MH,1682426864
176,kangasniemi,61.9936,26.6479,289.16,68,80,3.22,FI,1682426864
177,sur,22.5667,59.5289,302.83,54,0,0.71,OM,1682426864
178,cascais,38.6979,-9.4215,300.1,69,0,7.15,PT,1682426865
179,katsuura,35.1333,140.3,288.63,65,100,7.79,JP,1682426855
180,bikenibeu village,1.3673,173.1241,300.13,83,75,1.54,KI,1682426865
181,irymple,-34.25,142.1667,292.91,45,100,4.65,AU,1682426865
182,port hedland,-20.3167,118.5667,299.18,89,100,3.09,AU,1682426763
183,diapaga,12.0708,1.7889,313.53,17,22,1.83,BF,1682426866
184,vylkove,45.4021,29.586,288.63,54,81,7.73,UA,1682426866
185,asosa,10.0667,34.5333,299.69,40,100,2.83,ET,1682426743
186,kavieng,-2.5744,150.7967,301.08,80,3,4.43,PG,1682426866
187,saldanha,-33.0117,17.9442,295.18,70,0,4.52,ZA,1682426866
188,quellon,-43.1167,-73.6167,283.29,100,100,0.0,CL,1682426866
189,letterkenny,54.95,-7.7333,283.11,44,100,3.26,IE,1682426867
190,pitimbu,-7.4706,-34.8086,298.48,76,77,4.36,BR,1682426867
191,harstad,68.799,16.5293,276.81,64,13,5.36,NO,1682426867
192,revda,56.801,59.9303,291.65,37,4,3.83,RU,1682426867
193,la cruz,23.9167,-106.9,292.5,62,66,2.21,MX,1682426868
194,uthal,25.8072,66.6219,304.1,42,100,5.31,PK,1682426868
195,paracuru,-3.41,-39.0306,302.65,73,92,4.24,BR,1682426868
196,narasannapeta,18.4167,84.05,301.38,76,63,1.3,IN,1682426869
197,haiku-pauwela,20.9219,-156.3051,294.84,88,0,1.54,US,1682426869
198,bodo,67.28,14.405,278.4,36,0,6.17,NO,1682426870
199,nova vicosa,-17.8919,-39.3719,298.78,81,26,2.78,BR,1682426835
200,san patricio,28.017,-97.5169,296.07,91,98,3.48,US,1682426871
201,shingu,33.7333,135.9833,290.29,92,100,6.54,JP,1682426871
202,akrehamn,59.2667,5.1833,280.6,57,40,14.4,NO,1682426871
203,yurimaguas,-5.9,-76.0833,297.04,93,97,0.58,PE,1682426872
204,mariental,-24.6333,17.9667,302.2,33,2,3.51,NA,1682426872
205,yashiro,34.9167,134.9667,287.75,93,100,4.82,JP,1682426872
206,urengoy,65.9667,78.3667,269.85,87,23,3.95,RU,1682426872
207,aoulef,26.9667,1.0833,308.46,9,0,7.77,DZ,1682426872
208,pingliang,35.5392,106.6861,285.8,50,0,2.67,CN,1682426872
209,smithers,54.7804,-127.1743,275.33,80,100,1.54,CA,1682426873
210,chernyshevskiy,63.0128,112.4714,267.02,97,100,1.38,RU,1682426873
211,lata,40.1629,-8.3327,298.42,47,72,3.54,PT,1682426873
212,san fernando,15.0286,120.6898,303.0,72,27,2.06,PH,1682426760
213,kirakira,-10.4544,161.9205,299.52,83,100,1.47,SB,1682426873
214,murashi,59.3999,48.9615,292.79,32,92,3.44,RU,1682426874
215,tolanaro,-25.0319,46.9987,299.19,61,40,7.2,MG,1682426756
216,mersa matruh,31.3525,27.2453,296.26,64,0,5.14,EG,1682426874
217,westport,41.1415,-73.3579,284.76,60,0,4.63,US,1682426759
218,tazovsky,67.4667,78.7,269.24,91,67,5.09,RU,1682426874
219,anse a galets,18.8317,-72.8642,299.36,69,12,1.67,HT,1682426874
220,tamanrasset,22.785,5.5228,303.1,9,0,2.06,DZ,1682426875
221,medicine hat,50.0501,-110.6683,278.39,78,0,3.6,CA,1682426875
222,kinablangan,7.6947,126.5503,299.56,83,45,0.56,PH,1682426875
223,val-d'or,48.1002,-77.7828,274.2,100,100,2.57,CA,1682426875
224,capo d'orlando,38.1435,14.7305,293.38,67,100,5.01,IT,1682426876
225,rzhev,56.2624,34.3282,287.93,55,100,2.38,RU,1682426876
226,kosciusko,33.0576,-89.5876,283.94,62,86,3.24,US,1682426876
227,crane,31.3974,-102.3501,286.38,86,69,8.47,US,1682426876
228,huarmey,-10.0681,-78.1522,297.49,79,96,2.65,PE,1682426877
229,erenhot,43.6475,111.9767,280.22,12,100,3.82,CN,1682426746
230,dryden,49.7833,-92.7503,270.31,68,100,2.06,CA,1682426877
231,dalhart,36.0595,-102.5133,281.16,93,100,3.09,US,1682426877
232,belmonte,-15.8631,-38.8828,299.01,78,56,3.3,BR,1682426877
233,carauari,-4.8828,-66.8958,296.95,92,99,0.64,BR,1682426877
234,alofi,-19.0595,-169.9187,293.09,100,99,1.03,NU,1682426621
235,januaria,-15.4833,-44.3667,300.97,46,0,3.54,BR,1682426878
236,amga,60.8953,131.9608,267.06,97,100,0.99,RU,1682426878
237,bonthe,7.5264,-12.505,304.73,63,100,4.56,SL,1682426878
238,nishinoomote,30.7333,131.0,293.97,87,100,10.63,JP,1682426614
239,kalemie,-5.9475,29.1947,298.91,71,97,2.61,CD,1682426878
240,olinda,-8.0089,-34.8553,302.0,74,75,1.54,BR,1682426878
241,avarua,-21.2078,-159.775,299.18,78,40,5.14,CK,1682426878
242,cockburn town,21.4612,-71.1419,298.33,73,85,3.5,TC,1682426745
243,xilin hot,43.9667,116.0333,275.02,25,0,1.42,CN,1682426675
244,margate,51.3813,1.3862,284.09,58,15,2.68,GB,1682426879
245,naze,28.3667,129.4833,294.66,89,99,5.4,JP,1682426879
246,longjing,42.7714,129.4233,280.3,86,100,1.11,CN,1682426879
247,howrah,22.5892,88.3103,304.15,62,75,0.0,IN,1682426879
248,fort mcmurray,56.7268,-111.381,275.92,80,75,4.12,CA,1682426810
249,puerto deseado,-47.7503,-65.8938,283.61,70,100,3.93,AR,1682426880
250,zhalantun,48.0,122.7167,277.08,22,47,2.36,CN,1682426880
251,illizi,26.4833,8.4667,306.38,14,6,6.53,DZ,1682426880
252,dhalie,13.6957,44.7314,292.84,78,97,2.39,YE,1682426880
253,selfoss,63.9331,-20.9971,279.29,48,100,2.86,IS,1682426881
254,san luis,-33.295,-66.3356,290.84,56,0,2.92,AR,1682426881
255,mokhsogollokh,61.4681,128.9203,267.45,96,100,1.0,RU,1682426881
256,chipping norton,-33.9,150.95,291.47,87,0,0.45,AU,1682426881
257,college,64.8569,-147.8028,264.33,57,40,4.63,US,1682426881
258,codrington,-38.2667,141.9667,289.6,65,92,3.26,AU,1682426882
259,sisimiut,66.9395,-53.6735,274.08,100,100,2.47,GL,1682426882
260,afaahiti,-17.75,-149.2833,298.08,85,100,6.65,PF,1682426882
261,nuuk,64.1835,-51.7216,274.49,93,20,9.26,GL,1682426882
262,san marcos,33.1434,-117.1661,287.73,86,100,1.54,US,1682426819
263,kirensk,57.7853,108.1119,273.14,94,100,1.91,RU,1682426883
264,keflavik,64.0049,-22.5624,279.1,52,40,4.12,IS,1682426883
265,una,20.8167,71.0333,304.72,37,100,4.36,IN,1682426883
266,conduaga,8.862,117.4893,299.89,83,78,0.87,PH,1682426883
267,calatayud,41.3535,-1.6432,298.79,30,100,7.87,ES,1682426883
268,buka,40.8108,69.1986,299.11,28,0,4.43,UZ,1682426727
269,raduzhnyy,62.0961,77.475,272.6,80,72,2.5,RU,1682426884
270,belomorsk,64.5232,34.7668,273.97,84,100,2.98,RU,1682426884
271,bubaque,11.2833,-15.8333,299.03,66,4,4.28,GW,1682426884
272,kosan,38.8558,127.4181,280.23,85,64,2.5,KP,1682426884
273,saint-louis,16.3333,-15.0,310.95,12,2,2.52,SN,1682426884
274,wakimachi,34.0667,134.15,290.05,92,100,7.15,JP,1682426884
275,koungou,-12.7336,45.2042,302.99,70,20,8.75,YT,1682426885
276,tangalle,6.024,80.7911,299.24,81,100,1.39,LK,1682426885
277,cill airne,52.05,-9.5167,284.18,50,75,6.17,IE,1682426885
278,arkhangel'sk,64.5401,40.5433,278.21,56,20,2.0,RU,1682426885
279,guantanamo,20.1444,-75.2092,295.91,63,95,0.26,CU,1682426877
280,atafu village,-8.5421,-172.5159,301.85,76,13,3.62,TK,1682426886
281,pastos bons,-6.6017,-44.0767,302.04,48,100,4.09,BR,1682426886
282,ulladulla,-35.35,150.4667,288.08,91,7,1.96,AU,1682426887
283,yorkton,51.2167,-102.4677,271.06,80,0,3.6,CA,1682426887
284,tazacorte,28.629,-17.9293,294.69,81,20,5.66,ES,1682426888
285,hlukhiv,51.6782,33.9162,290.24,43,99,1.64,UA,1682426810
286,dudinka,69.4058,86.1778,275.72,90,100,2.84,RU,1682426888
287,kuqa,41.7278,82.9364,291.76,29,12,9.42,CN,1682426888
288,ouro sogui,15.6,-13.3167,314.16,16,0,4.12,SN,1682426889
289,kiama,-34.6833,150.8667,292.36,84,20,0.89,AU,1682426889
290,wacheng,33.7833,114.5167,286.7,61,0,3.38,CN,1682426739
291,al fashn,28.8243,30.8995,304.48,17,0,7.82,EG,1682426754
292,gulfport,30.3674,-89.0928,288.18,72,0,3.09,US,1682426810
293,aasiaat,68.7098,-52.8699,272.03,95,100,2.48,GL,1682426889
294,savur,37.5388,40.8877,293.81,42,85,0.51,TR,1682426890
295,kimbe,-5.5502,150.1429,299.09,87,97,0.83,PG,1682426890
296,aykhal,66.0,111.5,265.89,95,100,4.59,RU,1682426891
297,villa carlos paz,-31.4241,-64.4978,284.75,59,2,0.89,AR,1682426891
298,santa cruz,-17.8,-63.1667,293.18,88,75,5.66,BO,1682426891
299,liwale,-9.7667,37.9333,298.64,80,99,2.72,TZ,1682426891
300,parkersburg,39.2667,-81.5615,277.75,93,0,0.0,US,1682426891
301,santa vitoria do palmar,-33.5189,-53.3681,293.44,86,100,3.38,BR,1682426869
302,satipo,-11.2522,-74.6386,294.73,96,100,0.33,PE,1682426861
303,vadso,70.0744,29.7487,275.24,64,20,11.32,NO,1682426892
304,dhuusamarreeb,5.535,46.3861,306.16,42,97,3.71,SO,1682426892
305,bambanglipuro,-7.95,110.2833,299.67,86,100,2.11,ID,1682426892
306,northam,51.0333,-4.2167,285.51,61,100,5.26,GB,1682426892
307,el charco,2.4769,-78.1105,299.7,82,81,0.72,CO,1682426893
308,badger,64.8,-147.5333,264.29,59,40,4.63,US,1682426893
309,alaghsas,17.0187,8.0168,313.09,10,0,5.14,NE,1682426893
310,boguchany,58.3814,97.4531,272.83,91,100,4.73,RU,1682426894
311,la concepcion,8.5167,-82.6167,297.81,76,8,0.66,PA,1682426789
312,waajid,3.8096,43.2463,303.31,54,94,2.71,SO,1682426894
313,kupino,54.3663,77.2981,285.07,50,47,5.4,RU,1682426894
314,tarawa,1.419,172.984,300.2,83,75,1.54,KI,1682426837
315,georgetown,5.4112,100.3354,303.12,79,40,3.09,MY,1682426700
316,chinde,26.8418,88.0763,292.4,48,100,2.29,NP,1682426894
317,el calafate,-50.3408,-72.2768,278.7,79,5,1.97,AR,1682426895
318,pacocha,-17.5833,-71.3333,293.21,81,64,2.04,PE,1682426895
319,sungailiat,-1.85,106.1333,300.67,76,15,0.89,ID,1682426895
320,kavaratti,10.5669,72.642,301.36,67,71,3.55,IN,1682426895
321,rio de janeiro,-22.9028,-43.2075,302.12,80,20,2.06,BR,1682426895
322,rajakhera,26.8961,78.1714,305.26,17,2,1.4,IN,1682426895
323,sao tome,0.3365,6.7273,299.15,87,100,7.08,ST,1682426895
324,huilong,31.8111,121.655,285.14,77,100,4.23,CN,1682426677
325,mhamid,29.82,-5.72,308.48,9,0,4.85,MA,1682426896
326,vila velha,-20.3297,-40.2925,298.12,85,75,2.57,BR,1682426896
327,xilitla,21.3333,-98.9667,292.79,92,100,0.81,MX,1682426896
328,al qusayr,34.5091,36.5798,293.43,46,0,6.02,SY,1682426812
329,berezovyy,51.6667,135.7,275.34,88,100,1.53,RU,1682426896
330,ternate,0.8,127.4,301.11,78,59,1.4,ID,1682426693
331,khovd,48.0056,91.6419,283.05,23,0,8.41,MN,1682426897
332,gagliano del capo,39.8442,18.3695,293.51,82,0,2.57,IT,1682426897
333,kingsford,-33.924,151.2275,291.36,82,0,0.45,AU,1682426897
334,belyy yar,53.6039,91.3903,276.09,30,0,6.0,RU,1682426897
335,colonia,50.9333,6.95,285.07,54,0,6.17,DE,1682426898
336,slave lake,55.2834,-114.769,275.14,93,100,2.57,CA,1682426898
337,san rafael del yuma,18.4299,-68.6739,297.91,60,32,2.27,DO,1682426898
338,vorkuta,67.5,64.0,267.82,91,6,3.31,RU,1682426899
339,chita,52.0333,113.55,279.09,30,40,0.0,RU,1682426900
340,kingscliff,-28.2667,153.5667,291.33,82,75,4.63,AU,1682426901
341,la plata,-34.9215,-57.9545,293.17,82,100,2.6,AR,1682426901
342,egilsstadir,65.2653,-14.3948,272.1,80,100,6.69,IS,1682426901
343,hilo,19.7297,-155.09,294.4,86,100,2.68,US,1682426746
344,gadzhiyevo,69.2551,33.3362,273.42,70,0,9.01,RU,1682426902
345,kailua-kona,19.6406,-155.9956,297.13,80,75,2.24,US,1682426902
346,mitu,1.1983,-70.1733,298.4,80,99,1.01,CO,1682426903
347,coronel du graty,-27.6804,-60.9146,288.72,76,0,0.58,AR,1682426903
348,acapulco de juarez,16.8634,-99.8901,297.05,88,75,1.03,MX,1682426903
349,pingyi,35.5006,117.6308,286.01,64,5,1.91,CN,1682426744
350,nogliki,51.8333,143.1667,272.65,84,100,2.37,RU,1682426903
351,mar del plata,-38.0023,-57.5575,292.64,98,100,1.03,AR,1682426664
352,manggar,-2.8833,108.2667,300.9,75,99,1.19,ID,1682426902
353,nikolayevsk-on-amure,53.1406,140.73,272.54,81,100,1.67,RU,1682426903
354,karachev,53.1229,34.9852,288.94,52,100,2.07,RU,1682426904
355,merizo village,13.2658,144.6691,301.46,92,33,6.9,GU,1682426904
356,wynne,35.2245,-90.7868,283.7,70,100,1.9,US,1682426904
357,howard springs,-12.497,131.047,301.1,80,100,2.5,AU,1682426904
358,trapani,37.8333,12.6667,297.19,73,0,4.12,IT,1682426904
359,dongola,19.1667,30.4833,315.3,7,30,1.17,SD,1682426905
360,antsiranana,-12.2787,49.2917,304.57,70,40,5.14,MG,1682426906
361,nemuro,43.3236,145.575,276.89,87,100,5.15,JP,1682426817
362,palikir - national government center,6.9248,158.1611,299.91,80,100,6.74,FM,1682426757
363,kouango,4.9934,19.9619,313.03,25,83,0.69,CF,1682426762
364,claveria,18.6074,121.0832,298.11,85,24,4.23,PH,1682426907
365,trincomalee,8.5711,81.2335,302.48,76,100,5.4,LK,1682426908
366,lamar,33.6668,-95.5836,286.68,65,100,5.14,US,1682426908
367,kristiansund,63.1115,7.732,278.18,80,75,2.57,NO,1682426908
368,pasni,25.2631,63.471,299.64,73,100,5.88,PK,1682426909
369,la almunia de dona godina,41.4767,-1.3745,297.38,36,100,4.7,ES,1682426909
370,narvik,68.4384,17.4272,276.82,54,12,2.61,NO,1682426909
371,noumea,-22.2763,166.4572,298.15,99,100,5.7,NC,1682426806
372,grand falls-windsor,48.9332,-55.6649,278.16,76,96,5.26,CA,1682426910
373,rosso,16.4986,-15.8153,311.49,14,3,4.21,SN,1682426910
374,safford,32.834,-109.7076,291.55,32,0,2.06,US,1682426911
375,rreshen,41.7675,19.8756,293.75,73,100,3.48,AL,1682426911
376,grayvoron,50.4767,35.6773,286.0,71,100,1.0,RU,1682426911
377,marica,-22.9194,-42.8186,297.12,69,5,1.07,BR,1682426911
378,hammerfest,70.6634,23.6821,274.4,75,75,3.09,NO,1682426911
379,ta`u,-14.2336,-169.5144,300.09,75,19,0.97,AS,1682426912
380,kalmunai,7.4167,81.8167,302.26,74,100,3.53,LK,1682426882
381,yelizovo,53.1873,158.3805,275.23,60,75,3.0,RU,1682426912
382,cheremukhovo,60.3484,59.9851,291.13,44,38,4.13,RU,1682426912
383,birobidzhan,48.8,132.95,276.82,88,100,1.07,RU,1682426912
384,ebon,4.582,168.6964,300.09,81,100,5.57,MH,1682426913
385,port blair,11.6667,92.75,301.97,72,96,2.63,IN,1682426701
386,aracuai,-16.8497,-42.0703,300.34,54,55,2.42,BR,1682426871
387,rapla,59.0072,24.7928,293.09,36,62,4.87,EE,1682426913
388,san luis de la loma,17.2706,-100.8939,297.62,76,100,1.74,MX,1682426913
389,nguigmi,14.2495,13.1092,311.95,16,73,1.71,NE,1682426913
390,balikpapan,-1.2675,116.8289,297.7,94,20,1.54,ID,1682426900
391,la fria,8.2203,-72.2439,297.21,86,100,0.36,VE,1682426853
392,yarmouth,41.7057,-70.2286,283.69,92,100,4.02,US,1682426784
393,kasungu,-13.0333,33.4833,299.9,45,11,2.23,MW,1682426914
394,road town,18.4167,-64.6167,300.2,65,20,2.57,VG,1682426914
395,richards bay,-28.783,32.0377,298.68,70,17,4.11,ZA,1682426914
396,abnub,27.2696,31.1511,307.27,8,18,7.43,EG,1682426914
397,acajutla,13.5928,-89.8275,300.65,63,5,1.1,SV,1682426839
398,saint-philippe,-21.3585,55.7679,299.92,81,88,0.35,RE,1682426915
399,coquimbo,-29.9533,-71.3436,286.0,94,100,1.54,CL,1682426915
400,jiangyou,31.7667,104.7167,290.87,64,100,1.1,CN,1682426915
401,vila do maio,15.1333,-23.2167,299.59,78,4,7.41,CV,1682426915
402,vigan,17.5747,120.3869,300.09,75,14,0.31,PH,1682426915
403,khandyga,62.6667,135.6,267.52,97,99,0.86,RU,1682426916
404,turi,40.9173,17.0212,294.51,38,75,4.12,IT,1682426916
405,sterling,39.0062,-77.4286,283.27,63,40,3.13,US,1682426916
406,honiara,-9.4333,159.95,298.83,87,93,0.72,SB,1682426649
407,steamboat springs,40.485,-106.8317,273.9,94,100,1.54,US,1682426916
408,ponta delgada,37.7333,-25.6667,291.55,94,75,3.6,PT,1682426917
409,novodvinsk,64.4165,40.8122,278.01,79,92,2.71,RU,1682426638
410,gamay,12.3854,125.2979,298.58,84,98,1.89,PH,1682426917
411,bataipora,-22.2953,-53.2711,294.12,82,100,3.42,BR,1682426917
412,vilhena,-12.7406,-60.1458,297.27,88,20,2.57,BR,1682426917
413,pimentel,-6.8367,-79.9342,298.31,83,75,0.51,PE,1682426793
414,fuglafjordur,62.244,-6.814,273.41,62,100,8.03,FO,1682426918
415,riverside,33.7333,-116.0508,291.59,58,0,1.54,US,1682426918
416,cambria,35.5641,-121.0808,286.27,62,8,2.8,US,1682426918
417,pathein,16.7833,94.7333,301.73,71,18,5.43,MM,1682426918
418,demba,-5.51,22.2667,300.25,68,95,0.96,CD,1682426918
419,omdurman,15.6445,32.4777,317.0,10,6,3.58,SD,1682426918
420,hailey,43.5196,-114.3153,274.76,75,0,5.81,US,1682426919
421,qamdo,31.1667,97.2333,273.19,68,100,3.72,CN,1682426637
422,skelleftea,64.7507,20.9528,273.15,100,75,6.17,SE,1682426919
423,sturgis,41.7992,-85.4192,278.19,86,100,2.06,US,1682426919
424,'ain el melh,34.8415,4.1638,299.93,14,81,3.9,DZ,1682426919
425,flin flon,54.7682,-101.865,271.06,64,40,2.06,CA,1682426920
426,okha,53.5739,142.9478,270.84,81,70,1.83,RU,1682426920
427,kapa'a,22.0752,-159.319,295.14,85,75,3.6,US,1682426920
428,la foa,-21.7108,165.8276,297.13,81,100,1.56,NC,1682426920
429,lincheng,19.9078,109.6858,296.26,84,99,6.17,CN,1682426743
430,newman,37.3138,-121.0208,286.09,81,12,1.79,US,1682426920
431,mglin,53.0591,32.8475,289.81,49,98,2.38,RU,1682426921
432,carutapera,-1.195,-46.02,301.02,80,71,3.45,BR,1682426921
433,kantunilkin,21.0917,-87.45,299.12,73,4,1.96,MX,1682426921
434,bulancak,40.9372,38.2291,288.05,77,0,3.09,TR,1682426921
435,polyarnyy,69.1989,33.4478,273.64,69,1,8.78,RU,1682426921
436,urangan,-25.3,152.9,295.06,70,26,9.04,AU,1682426922
437,sierra grande,-41.606,-65.3557,290.87,24,95,3.58,AR,1682426922
438,vidyayevo,69.3191,32.8049,273.45,72,6,8.63,RU,1682426923
439,shahba,32.8551,36.629,293.92,17,0,7.12,SY,1682426923
440,hami,42.8,93.45,292.24,22,100,8.63,CN,1682426923
441,malabrigo,-29.3464,-59.9696,290.87,80,75,2.36,AR,1682426923
442,conde,-7.2597,-34.9075,297.85,100,75,2.06,BR,1682426877
443,okhotsk,59.3833,143.3,270.37,95,99,3.2,RU,1682426924
444,selebi-phikwe,-21.979,27.8498,306.96,20,0,1.69,BW,1682426924
445,vernon,50.2581,-119.2691,278.11,71,100,1.54,CA,1682426782
446,usinsk,65.9939,57.5281,273.38,78,20,3.7,RU,1682426925
447,syktyvkar,61.6764,50.8099,294.0,26,0,5.0,RU,1682426925
448,swift current,50.2834,-107.8014,276.6,65,100,7.72,CA,1682426925
449,katsuren-haebaru,26.3369,127.8719,295.58,86,100,4.12,JP,1682426925
450,sinop,41.7711,34.8709,284.39,49,99,0.83,TR,1682426926
451,juan de herrera,18.874,-71.2383,297.22,73,25,1.97,DO,1682426926
452,walvis bay,-22.9575,14.5053,304.68,40,0,4.63,NA,1682426926
453,refahiye,39.9008,38.7667,285.6,37,36,3.32,TR,1682426926
454,alamos,27.0167,-108.9333,290.99,33,9,1.66,MX,1682426926
455,sherbakul',54.6316,72.3963,291.88,32,11,4.76,RU,1682426926
456,labrador city,52.9463,-66.9114,277.1,60,75,1.03,CA,1682426927
457,buena vista,43.4203,-83.8986,277.12,76,40,2.57,US,1682426927
458,lakatoro,-16.0999,167.4164,299.01,82,19,2.59,VU,1682426927
459,susuman,62.7833,148.1667,259.05,99,81,1.82,RU,1682426928
460,acarau,-2.8856,-40.12,300.98,76,61,5.17,BR,1682426817
461,lethem,3.3803,-59.7968,296.72,93,100,1.06,GY,1682426928
462,at taraf,25.3628,49.725,306.45,35,66,7.32,SA,1682426928
463,mineiros,-17.5694,-52.5511,297.95,64,55,4.24,BR,1682426929
464,ko pha ngan,9.7578,100.0291,301.53,73,100,5.38,TH,1682426929
465,kovdor,67.5662,30.4758,274.0,82,96,1.43,RU,1682426675
466,mount pearl,47.5166,-52.7813,275.84,96,100,8.23,CA,1682426929
467,paradip garh,20.3167,86.6167,297.43,70,100,6.52,IN,1682426929
468,pangody,65.85,74.4859,271.7,86,100,3.22,RU,1682426929
469,kununurra,-15.7667,128.7333,298.14,78,81,0.0,AU,1682426931
470,broome,42.2506,-75.833,278.97,78,0,2.06,US,1682426931
471,pamanukan,-6.2842,107.8106,300.09,78,100,1.69,ID,1682426931
472,khor,47.8861,134.9464,282.51,63,100,7.17,RU,1682426931
473,jayapura,-2.5333,140.7,299.81,89,100,2.5,ID,1682426932
474,khorixas,-20.3667,14.9667,308.32,22,34,4.1,NA,1682426932
475,huanren,41.2647,125.3667,277.42,96,100,3.52,CN,1682426750
476,wynyard,-41.0,145.7167,287.03,83,1,2.36,AU,1682426932
477,itoman,26.1247,127.6694,295.58,94,75,7.2,JP,1682426932
478,astoria,46.1879,-123.8313,282.09,76,100,3.09,US,1682426932
479,panshan,41.1881,122.0494,278.25,56,14,5.95,CN,1682426934
480,severnoye,56.3491,78.3619,279.26,68,100,2.0,RU,1682426934
481,zheleznodorozhnyy,55.7503,38.0042,292.38,36,100,2.93,RU,1682426654
482,klaksvik,62.2266,-6.589,273.66,63,99,8.54,FO,1682426934
483,messini,37.0511,22.0078,294.92,64,20,5.66,GR,1682426935
484,kerikeri,-35.2268,173.9474,283.66,92,0,2.01,NZ,1682426935
485,tanjung pandan,-2.75,107.65,299.59,82,39,0.78,ID,1682426936
486,veinticinco de mayo,-35.4323,-60.1727,292.38,63,97,3.0,AR,1682426936
487,fale old settlement,-9.3852,-171.2468,301.93,75,100,4.02,TK,1682426937
488,goundi,9.3627,17.366,313.96,20,82,1.59,TD,1682426937
489,ghadamis,30.1337,9.5007,303.89,9,3,2.93,LY,1682426937
490,leava,-14.3,-178.1667,301.37,77,45,4.12,WF,1682426937
491,upington,-28.4478,21.2561,301.36,28,0,1.54,ZA,1682426937
492,san jose del guaviare,2.5729,-72.6459,297.84,83,93,0.99,CO,1682426937
493,gobabis,-22.45,18.9667,301.8,28,52,3.59,NA,1682426938
494,sale,34.0389,-6.8166,307.39,57,11,4.12,MA,1682426939
495,malaya vishera,58.8454,32.2222,292.77,31,98,3.7,RU,1682426939
496,kaiapoi,-43.3783,172.6401,289.52,58,100,3.6,NZ,1682426939
497,happy valley-goose bay,53.3168,-60.3315,278.32,70,20,0.0,CA,1682426939
498,mastung,29.7994,66.845,295.0,21,100,4.84,PK,1682426939
499,urrao,6.3152,-76.1342,290.79,77,7,0.16,CO,1682426839
500,mallapuram,11.9667,78.25,298.07,81,98,3.58,IN,1682426940
501,myeik,12.4333,98.6,302.18,76,100,3.09,MM,1682426940
502,fortuna,40.5982,-124.1573,282.03,91,100,0.45,US,1682426940
503,ratangarh,28.0833,74.6,307.06,12,18,2.88,IN,1682426941
504,coyhaique,-45.5752,-72.0662,280.49,100,100,1.54,CL,1682426941
505,cabo san lucas,22.8909,-109.9124,291.76,63,12,4.81,MX,1682426941
506,taltal,-25.4,-70.4833,292.95,69,1,2.42,CL,1682426941
507,la tuque,47.4334,-72.7824,277.29,93,100,1.03,CA,1682426942
508,greymouth,-42.4667,171.2,287.4,91,52,8.84,NZ,1682426925
509,necochea,-38.5473,-58.7368,290.66,68,15,3.19,AR,1682426753
510,durg,21.1833,81.2833,306.25,61,100,9.77,IN,1682426851
511,prince george,53.9166,-122.753,276.27,60,0,2.06,CA,1682426942
512,ippy,6.2679,21.2247,310.74,25,24,2.09,CF,1682426927
513,severo-yeniseyskiy,60.3725,93.0408,269.59,95,100,3.52,RU,1682426942
514,bosobolo,4.1833,19.9,308.92,35,78,1.55,CD,1682426943
515,gaigeturi,33.4644,126.3183,285.18,94,100,0.51,KR,1682426943
516,dunedin,-45.8742,170.5036,281.93,76,100,7.15,NZ,1682426763
517,murudeshwara,14.0943,74.4845,301.61,70,19,3.16,IN,1682426646
518,nurota,40.5614,65.6886,298.02,18,0,9.29,UZ,1682426800
519,le moule,16.3332,-61.3473,302.69,100,32,0.45,GP,1682426944
520,metlili chaamba,32.2667,3.6333,304.67,17,0,3.09,DZ,1682426945
521,yugorsk,61.3133,63.3319,288.21,60,18,5.74,RU,1682426946
522,saint-francois,46.4154,3.9054,288.13,52,0,3.6,FR,1682426946
523,eyl,7.9803,49.8164,303.95,61,24,5.63,SO,1682426946
524,canguaretama,-6.38,-35.1289,302.3,69,74,5.34,BR,1682426946
525,asubulaq,49.5583,83.0558,277.16,48,39,4.77,KZ,1682426947
526,bayanhongor,46.7167,100.1167,277.75,51,100,5.12,MN,1682426947
527,ascencion,31.1,-107.9833,287.11,34,0,4.44,MX,1682426947
528,plastun,44.7561,136.2939,277.37,80,100,2.55,RU,1682426947
529,gonabad,34.3529,58.6837,301.93,15,100,8.61,IR,1682426948
530,coahuayana de hidalgo,18.7,-103.6583,294.55,82,100,1.58,MX,1682426949
531,axim,4.8699,-2.2405,303.88,66,99,4.3,GH,1682426949
532,sandpoint,48.2766,-116.5533,279.5,93,100,0.0,US,1682426949
533,port saint john's,-31.6229,29.5448,295.41,88,93,1.73,ZA,1682426949
534,sinabang,2.4803,96.3801,301.2,77,98,2.05,ID,1682426950
535,holualoa,19.6228,-155.9522,295.06,78,75,2.24,US,1682426950
536,brioude,45.1667,3.4167,288.09,41,99,2.92,FR,1682426950
537,manicore,-5.8092,-61.3003,298.12,88,75,2.06,BR,1682426950
538,panama city beach,30.1766,-85.8055,293.14,67,0,3.58,US,1682426951
539,sandnessjoen,66.0217,12.6316,279.07,44,75,4.12,NO,1682426951
540,porto novo,6.4965,2.6036,305.05,54,100,4.79,BJ,1682426951
541,whitecourt,54.1502,-115.6855,276.73,100,75,1.03,CA,1682426951
542,benjamin aceval,-24.9667,-57.5667,292.37,95,100,1.11,PY,1682426951
543,palmer,42.1584,-72.3287,283.32,83,19,1.68,US,1682426952
544,nouadhibou,20.931,-17.0347,296.14,68,0,5.66,MR,1682426952
545,yushu,44.8,126.5333,276.34,82,100,6.24,CN,1682426755
546,al majaridah,19.1236,41.9111,306.2,41,33,4.19,SA,1682426952
547,rikaze,29.25,88.8833,283.64,15,100,2.74,CN,1682426952
548,bumba,2.1833,22.4667,304.06,52,67,0.76,CD,1682426953
549,carnarvon,-24.8667,113.6333,292.71,54,40,7.14,AU,1682426779
550,kargopol',61.5071,38.9456,290.46,52,55,1.25,RU,1682426953
551,lautoka,-17.6167,177.4667,298.07,88,75,3.09,FJ,1682426953
552,vicksburg,32.3526,-90.8779,285.28,69,75,2.57,US,1682426836
553,tandil,-37.3217,-59.1332,290.37,69,67,1.04,AR,1682426955
554,bluefields,12.0137,-83.7635,297.19,94,40,2.06,NI,1682426955
555,barra de santo antonio,-9.4047,-35.5072,297.75,78,100,4.01,BR,1682426955
556,wotho,10.1657,166.0102,298.16,90,100,5.22,MH,1682426955
557,quillacollo,-17.4,-66.2833,291.0,32,1,0.0,BO,1682426956
558,basco,20.4487,121.9702,298.78,73,29,5.04,PH,1682426956
559,vicuna,-30.0319,-70.7081,282.0,17,54,0.46,CL,1682426957
560,altayskoye,51.9533,85.3325,276.26,57,96,4.56,RU,1682426958
561,malvan,16.0667,73.4667,301.55,71,45,4.12,IN,1682426960
562,maitum,6.0392,124.4986,300.15,82,100,0.6,PH,1682426960
563,kittila,67.6647,24.8936,276.23,32,0,3.09,FI,1682426962
564,mangrol,21.1167,70.1167,301.47,69,100,7.56,IN,1682426962
565,korhogo,9.45,-5.6333,311.89,27,100,1.84,CI,1682426963
566,karyes,37.3,22.5,288.82,41,100,7.37,GR,1682426965
567,conception bay south,47.4999,-52.9981,276.17,95,100,8.23,CA,1682426828
568,broken hill,-31.95,141.4333,292.67,46,67,4.36,AU,1682426965
569,ploneour-lanvern,47.9,-4.2833,285.33,71,100,6.17,FR,1682426965
570,djibo,14.1022,-1.6306,313.31,8,4,3.29,BF,1682426951
571,lupane,-18.9315,27.807,307.89,17,3,1.15,ZW,1682426966
572,kone,-21.0595,164.8658,295.74,88,100,1.94,NC,1682426966
573,laojunmiao,39.8333,97.7333,286.65,14,9,2.62,CN,1682426966
574,la ronge,55.1001,-105.2842,274.29,60,75,4.12,CA,1682426785
575,queenstown,-31.8976,26.8753,298.61,28,100,4.25,ZA,1682426966
576,quelimane,-17.8786,36.8883,303.12,58,40,5.36,MZ,1682426966
577,east london,-33.0153,27.9116,295.67,83,100,3.6,ZA,1682426967
578,utrik,11.2278,169.8474,300.31,77,93,8.65,MH,1682426967
579,mahibadhoo,3.7833,72.9667,301.92,73,93,3.04,MV,1682426794
580,ouddorp,51.8117,3.9347,285.36,59,13,6.67,NL,1682426967
581,hawera,-39.5917,174.2833,288.03,72,19,7.7,NZ,1682426967
582,marsh harbour,26.5412,-77.0636,296.99,74,4,6.28,BS,1682426968
583,nantucket,41.2835,-70.0995,283.21,87,40,1.54,US,1682426869
584,baharly,38.4362,57.4316,307.69,12,6,11.6,TM,1682426969
585,semnan,35.5729,53.3971,301.75,19,69,8.13,IR,1682426969
586,cadale,2.7603,46.3222,302.89,64,100,3.5,SO,1682426969
587,ilovlya,49.3033,43.9796,290.61,61,97,6.69,RU,1682426969
588,gaspe,48.8334,-64.4819,275.1,100,75,1.54,CA,1682426970
589,panaba,21.2833,-88.2667,298.99,73,4,4.51,MX,1682426971
590,mkushi,-13.6202,29.3939,299.38,41,0,3.7,ZM,1682426971
591,nazyvayevsk,55.5698,71.3529,291.46,37,71,4.28,RU,1682426971
592,maun,-19.9833,23.4167,306.13,29,0,3.09,BW,1682426487
