City_ID,City,Lat,Lng,Max Temp,Humidity,Cloudiness,Wind Speed,Country,Date
0,waitangi,-43.9535,-176.5597,14.9,84,89,4.92,NZ,1682428881
1,grytviken,-54.2811,-36.5092,2.62,98,100,2.82,GS,1682428894
2,balabac,7.9868,117.0645,28.42,77,77,4.43,PH,1682428805
3,arroyo,41.6096,-4.7969,24.52,32,0,4.63,ES,1682428924
4,tsiombe,-25.3,45.4833,24.4,59,100,4.92,MG,1682428925
5,hawaiian paradise park,19.5933,-154.9731,21.13,87,75,2.57,US,1682428894
6,san antonio de pale,-1.4014,5.6325,28.56,71,99,1.11,GQ,1682428925
7,coahuayana de hidalgo,18.7,-103.6583,21.4,82,100,1.58,MX,1682428925
8,severo-yeniseyskiy,60.3725,93.0408,-3.56,95,100,3.52,RU,1682428925
9,klyuchi,52.2667,79.1667,10.32,48,45,3.09,RU,1682428925
10,yellowknife,62.456,-114.3525,0.31,80,75,6.71,CA,1682428901
11,touros,-5.1989,-35.4608,28.4,75,70,5.35,BR,1682428902
12,albany,42.6001,-73.9662,6.89,72,27,0.45,US,1682428926
13,tiksi,71.6872,128.8694,-12.37,100,100,1.96,RU,1682428898
14,hermanus,-34.4187,19.2345,21.56,68,70,2.74,ZA,1682428926
15,ungsang-nodongjagu,42.3578,130.4622,6.38,94,100,1.82,KP,1682428926
16,adamstown,-25.066,-130.1015,25.15,87,4,5.79,PN,1682428896
17,chonchi,-42.6128,-73.8092,11.56,99,100,0.03,CL,1682428927
18,castillos,-34.1667,-53.8333,20.29,84,100,2.95,UY,1682428927
19,mossel bay,-34.1831,22.146,19.96,69,33,3.53,ZA,1682428927
20,port-aux-francais,-49.35,70.2167,4.26,75,10,7.89,TF,1682428881
21,atafu village,-8.5421,-172.5159,28.7,76,13,3.62,TK,1682428895
22,san patricio,28.017,-97.5169,23.92,91,98,3.48,US,1682428927
23,iqaluit,63.7506,-68.5145,-2.15,100,100,1.54,CA,1682428813
24,punta arenas,-53.15,-70.9167,6.06,75,40,8.75,CL,1682428928
25,bairnsdale,-37.8333,147.6167,11.7,91,15,1.83,AU,1682428906
26,whitehorse,60.7161,-135.0538,-3.57,79,20,2.06,CA,1682428902
27,isny,47.7,10.0333,8.53,74,100,2.68,DE,1682428928
28,holualoa,19.6228,-155.9522,21.91,80,75,2.68,US,1682428928
29,avarua,-21.2078,-159.775,26.03,73,20,4.63,CK,1682428899
30,portland,45.5234,-122.6762,7.12,91,75,1.34,US,1682428929
31,ballina,-28.8667,153.5667,16.55,66,52,4.92,AU,1682428930
32,kodiak,57.79,-152.4072,0.73,86,100,2.57,US,1682428930
33,vilhena,-12.7406,-60.1458,26.12,78,20,2.57,BR,1682428930
34,huarmey,-10.0681,-78.1522,24.34,79,96,2.65,PE,1682428676
35,north bend,43.4065,-124.2243,4.95,98,0,3.6,US,1682428930
36,alice springs,-23.7,133.8833,15.75,67,0,3.96,AU,1682428764
37,colon,9.3592,-79.9014,27.0,75,15,2.33,PA,1682428931
38,stanley,54.868,-1.6985,9.17,55,40,3.09,GB,1682428931
39,edinburgh of the seven seas,-37.0676,-12.3116,15.74,69,59,11.25,SH,1682428902
40,kuching,1.55,110.3333,27.9,89,20,1.34,MY,1682428757
41,fuyang,32.9,115.8167,11.59,81,0,3.34,CN,1682428931
42,sarai,53.7458,41.0213,10.78,93,100,4.57,RU,1682428932
43,blackmans bay,-43.0167,147.3167,14.07,79,0,2.68,AU,1682428882
44,bredasdorp,-34.5322,20.0403,21.64,50,41,0.45,ZA,1682428617
45,dudinka,69.4058,86.1778,2.57,90,100,2.84,RU,1682428899
46,acarau,-2.8856,-40.12,27.83,76,61,5.17,BR,1682428932
47,gujo,35.7369,136.9585,8.94,97,100,0.81,JP,1682428711
48,san luis de la loma,17.2706,-100.8939,24.47,76,100,1.74,MX,1682428932
49,st. john's,47.5649,-52.7093,3.15,95,100,6.71,CA,1682428933
50,dhandhuka,22.3667,71.9833,37.82,11,100,3.13,IN,1682428761
51,kitui,-1.367,38.0106,23.12,79,100,3.61,KE,1682428933
52,maitum,6.0392,124.4986,27.0,82,100,0.6,PH,1682428934
53,papao,-17.75,-149.55,24.82,87,100,7.74,PF,1682428934
54,port mathurin,-19.6833,63.4167,26.25,79,93,8.12,MU,1682428894
55,nueva gerona,21.8833,-82.8,26.85,66,6,2.88,CU,1682428935
56,afaahiti,-17.75,-149.2833,23.93,85,100,6.65,PF,1682428936
57,longyearbyen,78.2186,15.6401,-5.09,68,0,2.57,SJ,1682428905
58,lihue,21.9789,-159.3672,20.77,83,40,4.12,US,1682428936
59,swift current,50.2834,-107.8014,4.45,65,100,8.23,CA,1682428936
60,saipan,15.1355,145.701,27.58,100,40,6.71,MP,1682428882
61,la passe,45.5549,-0.8967,15.13,88,100,2.46,FR,1682428936
62,ola,59.5833,151.2833,1.19,84,100,5.6,RU,1682428937
63,egilsstadir,65.2653,-14.3948,-1.05,86,100,6.69,IS,1682428937
64,liberal,37.0431,-100.921,8.08,87,100,5.66,US,1682428938
65,nusfalau,47.2,22.7333,10.93,91,100,3.45,RO,1682428938
66,vernon,50.2581,-119.2691,4.61,76,100,2.06,CA,1682428938
67,bethel,41.3712,-73.414,11.41,60,0,2.06,US,1682428894
68,saldanha,-33.0117,17.9442,17.55,70,0,4.52,ZA,1682428938
69,kapa'a,22.0752,-159.319,21.18,83,40,4.12,US,1682428939
70,cill airne,52.05,-9.5167,11.03,50,75,6.17,IE,1682428882
71,riyadh,24.6877,46.7219,33.08,17,0,4.89,SA,1682428782
72,invercargill,-46.4,168.35,8.4,78,96,7.46,NZ,1682428939
73,ushuaia,-54.8,-68.3,4.81,75,75,9.77,AR,1682428896
74,ust-nera,64.5667,143.2,-10.9,99,72,1.48,RU,1682428940
75,tangalle,6.024,80.7911,27.19,81,100,1.39,LK,1682428940
76,college,64.8569,-147.8028,-9.03,57,40,4.63,US,1682428904
77,marquette,46.5333,-87.6335,1.3,81,100,0.89,US,1682428941
78,kuressaare,58.2481,22.5039,12.97,67,100,2.06,EE,1682428941
79,sirjan,29.452,55.6814,24.03,19,100,6.52,IR,1682428941
80,puerto ayora,-0.7393,-90.3518,25.31,93,4,1.47,EC,1682428941
81,olinda,-8.0089,-34.8553,27.85,74,40,2.57,BR,1682428941
82,thompson,55.7435,-97.8558,-2.91,63,20,1.03,CA,1682428912
83,puerto natales,-51.7236,-72.4875,7.25,61,20,6.17,CL,1682428892
84,muroto-misakicho,33.2833,134.15,18.35,90,100,10.71,JP,1682428836
85,ziro,27.6333,93.8333,18.41,90,91,1.67,IN,1682428942
86,ostersund,63.1792,14.6357,-0.75,100,75,4.12,SE,1682428943
87,gorontalo,0.5412,123.0595,25.19,95,50,1.1,ID,1682428943
88,amga,60.8953,131.9608,-6.09,97,100,0.99,RU,1682428943
89,sitka,57.0531,-135.33,2.94,87,100,2.57,US,1682428944
90,mana,5.6592,-53.7767,27.35,81,100,2.99,GF,1682428944
91,binhe,32.6883,112.8275,14.92,59,0,2.8,CN,1682428944
92,hami,42.8,93.45,19.09,22,100,8.63,CN,1682428944
93,tsetserleg,47.475,101.4542,5.62,54,100,3.05,MN,1682428945
94,susuman,62.7833,148.1667,-14.1,99,81,1.82,RU,1682428945
95,columbia falls,48.3725,-114.1815,4.42,88,100,1.54,US,1682428945
96,bilibino,68.0546,166.4372,-14.9,78,94,1.88,RU,1682428946
97,ta`u,-14.2336,-169.5144,26.94,75,19,0.97,AS,1682428946
98,port saint john's,-31.6229,29.5448,22.26,88,93,1.73,ZA,1682428946
99,aioun,16.6614,-9.6149,39.18,8,5,4.8,MR,1682428946
100,shakawe,-18.3667,21.85,35.69,19,0,1.05,BW,1682428946
101,rurrenabaque,-14.4413,-67.5278,23.95,88,100,0.47,BO,1682428947
102,port hedland,-20.3167,118.5667,26.03,89,100,2.06,AU,1682428947
103,queenstown,-31.8976,26.8753,25.46,28,100,4.25,ZA,1682428734
104,katsuura,35.1333,140.3,15.48,65,100,7.79,JP,1682428948
105,umluj,25.0213,37.2685,26.86,62,0,7.18,SA,1682428948
106,magadan,59.5667,150.8,0.85,87,98,5.73,RU,1682428948
107,ephrata,40.1798,-76.1788,9.5,69,20,3.6,US,1682428948
108,evatt,-35.2118,149.0689,11.71,89,0,2.57,AU,1682428948
109,marsh harbour,26.5412,-77.0636,23.84,74,4,6.28,BS,1682428949
110,turochak,52.2576,87.1224,1.25,72,100,3.39,RU,1682428949
111,taoudenni,22.6783,-3.9836,37.89,6,0,5.93,ML,1682428949
112,kolokani,13.5728,-8.0339,40.05,8,17,4.31,ML,1682428949
113,amla,21.9333,78.1167,28.48,39,79,4.61,IN,1682428949
114,new norfolk,-42.7826,147.0587,14.72,64,0,1.63,AU,1682428950
115,ribeira grande,38.5167,-28.7,18.76,94,20,5.36,PT,1682428904
116,ciudad bolivar,8.1222,-63.5497,27.02,74,100,2.34,VE,1682428950
117,ulanhot,46.0833,122.0833,3.43,27,6,0.86,CN,1682428951
118,vorgashor,67.5833,63.95,-5.61,91,6,3.44,RU,1682428951
119,anadyr,64.75,177.4833,-11.72,79,0,3.0,RU,1682428951
120,igarka,67.4667,86.5833,0.84,99,100,1.95,RU,1682428951
121,nova sintra,14.8667,-24.7167,20.03,76,0,7.97,CV,1682428905
122,mount gambier,-37.8333,140.7667,15.69,67,85,2.49,AU,1682428952
123,papatowai,-46.5619,169.4708,9.79,77,87,8.75,NZ,1682428903
124,petropavlovsk-kamchatsky,53.0452,158.6483,0.33,69,75,2.0,RU,1682428785
125,nybro,56.7446,15.9071,10.14,72,100,4.24,SE,1682428952
126,haiku-pauwela,20.9219,-156.3051,21.69,88,20,1.54,US,1682428952
127,laguna,38.421,-121.4238,14.07,85,0,2.06,US,1682428952
128,keflavik,64.0049,-22.5624,5.95,48,40,3.09,IS,1682428953
129,sarangani,5.4033,125.4636,28.88,73,31,5.68,PH,1682428953
130,gescher,51.954,7.0048,12.25,56,100,3.13,DE,1682428953
131,ceerigaabo,10.6162,47.368,17.94,79,99,1.8,SO,1682428953
132,westport,41.1415,-73.3579,12.72,60,0,2.06,US,1682428953
133,los palacios,22.5872,-83.2486,26.46,66,2,0.91,CU,1682428697
134,mundri,-6.9558,111.71,25.7,85,100,1.38,ID,1682428953
135,aasiaat,68.7098,-52.8699,-1.12,95,100,2.48,GL,1682428891
136,minzhu,43.7286,127.3447,7.62,54,100,1.86,CN,1682428954
137,aripuana,-9.1667,-60.6333,25.59,87,97,0.25,BR,1682428954
138,prince george,53.9166,-122.753,4.03,60,0,3.09,CA,1682428955
139,missoula,47.0166,-113.8009,-1.78,87,78,0.85,US,1682428955
140,west island,-12.1568,96.8225,26.99,78,75,8.23,CC,1682428898
141,trairi,-3.2778,-39.2689,28.67,69,81,3.97,BR,1682428750
142,aljezur,37.3191,-8.8033,25.21,40,46,4.98,PT,1682428955
143,kingston,17.997,-76.7936,28.53,69,20,2.57,JM,1682428794
144,olonkinbyen,70.9221,-8.7187,-3.48,73,92,6.36,SJ,1682428903
145,utrik,11.2278,169.8474,27.16,77,93,8.65,MH,1682428956
146,barquisimeto,10.0739,-69.3228,24.73,66,73,1.49,VE,1682428956
147,aden,12.7794,45.0367,29.41,69,4,3.91,YE,1682428956
148,cabo san lucas,22.8909,-109.9124,17.61,63,12,4.81,MX,1682428930
149,santa quiteria do maranhao,-3.5156,-42.5467,29.54,65,19,1.89,BR,1682428957
150,lompoc,34.6391,-120.4579,9.45,81,100,6.26,US,1682428957
151,tofol,5.3248,163.0078,27.75,79,88,6.81,FM,1682428957
152,wynyard,-41.0,145.7167,13.88,83,1,2.36,AU,1682428957
153,salyan,39.5936,48.9805,23.82,46,100,5.19,AZ,1682428957
154,chinde,26.8418,88.0763,19.25,48,100,2.29,NP,1682428957
155,uturoa,-16.7333,-151.4333,26.82,82,100,5.19,PF,1682428891
156,ulladulla,-35.35,150.4667,14.93,91,7,1.96,AU,1682428853
157,maughold,54.2988,-4.3184,6.57,66,62,3.18,IM,1682428958
158,juneau,58.3019,-134.4197,2.0,97,75,3.6,US,1682428958
159,tolanaro,-25.0319,46.9987,25.04,65,40,7.2,MG,1682428901
160,san antonio oeste,-40.7319,-64.9477,18.62,52,25,3.7,AR,1682428959
161,recani,31.2846,-4.2688,32.88,10,1,2.29,MA,1682428959
162,peace river,56.2501,-117.286,4.25,95,40,3.6,CA,1682428959
163,port lincoln,-34.7333,135.8667,20.15,61,78,5.08,AU,1682428735
164,kavieng,-2.5744,150.7967,27.93,80,3,4.43,PG,1682428959
165,pinotepa nacional,16.3167,-98.0167,22.5,76,100,0.98,MX,1682428960
166,fort st. john,56.2499,-120.8529,2.94,52,40,9.26,CA,1682428960
167,sayat,38.7839,63.8803,31.93,10,0,4.91,TM,1682428859
168,zaltan,32.947,11.8665,26.34,41,4,5.6,LY,1682428708
169,ebon,4.582,168.6964,26.94,81,100,5.57,MH,1682428960
170,isafjordur,66.0755,-23.124,0.02,55,20,8.75,IS,1682428961
171,johi,26.6921,67.6133,36.98,9,100,1.77,PK,1682428961
172,tazovsky,67.4667,78.7,-3.91,91,67,5.09,RU,1682428901
173,georgetown,5.4112,100.3354,29.97,83,40,5.14,MY,1682428807
174,mumford,5.2618,-0.759,30.28,70,100,6.21,GH,1682428962
175,iskateley,67.6803,53.1512,-0.63,87,14,6.42,RU,1682428896
176,tomaszow lubelski,50.4477,23.4162,11.42,86,100,3.15,PL,1682428767
177,jamestown,42.097,-79.2353,5.86,77,40,4.02,US,1682428963
178,tokar,18.4254,37.729,32.3,56,0,7.57,SD,1682428853
179,soe,-9.8607,124.284,19.07,94,27,1.53,ID,1682428963
180,rongelap,11.1635,166.8941,25.34,87,100,5.28,MH,1682428963
181,an nuhud,12.7,28.4333,40.56,14,63,1.34,SD,1682428963
182,riberalta,-10.9833,-66.1,24.27,93,100,0.9,BO,1682428963
183,claveria,18.6074,121.0832,24.96,85,24,4.23,PH,1682428964
184,rengasdengklok,-6.1592,107.2981,28.07,76,100,2.27,ID,1682428964
185,zvoristea,47.8333,26.2833,17.72,77,75,7.2,RO,1682428964
186,kot ghulam muhammad,32.333,74.548,32.97,13,39,1.15,PK,1682428964
187,greymouth,-42.4667,171.2,14.25,91,52,8.84,NZ,1682428964
188,lazaro cardenas,17.9583,-102.2,24.11,74,100,1.86,MX,1682428965
189,shivpuri,25.4333,77.65,30.51,20,2,1.93,IN,1682428965
190,al jawf,29.5,38.75,27.11,15,0,3.21,SA,1682428965
191,kilindoni,-7.9139,39.6668,27.29,82,45,7.1,TZ,1682428965
192,port elizabeth,-33.918,25.5701,22.16,73,0,3.6,ZA,1682428756
193,kabare,-2.4683,28.8242,20.11,90,93,0.57,CD,1682428755
194,bazarnyy syzgan,53.7512,46.7535,10.88,91,100,8.56,RU,1682428966
195,wailua homesteads,22.0669,-159.378,20.44,84,40,4.12,US,1682428896
196,antofagasta,-23.65,-70.4,16.6,70,37,1.8,CL,1682428966
197,wolgast,54.05,13.7667,8.01,100,100,7.84,DE,1682428966
198,sao joao da barra,-21.6403,-41.0511,25.05,72,89,1.1,BR,1682428967
199,mahalapye,-23.1041,26.8142,31.78,23,12,2.06,BW,1682428967
200,labrador city,52.9463,-66.9114,4.95,56,75,1.03,CA,1682428967
201,fortuna,40.5982,-124.1573,8.88,90,100,0.45,US,1682428968
202,vega de alatorre,20.0333,-96.6333,23.49,90,100,2.13,MX,1682428968
203,qaqortoq,60.7167,-46.0333,1.47,89,100,1.05,GL,1682428968
204,preobrazheniye,42.9019,133.9064,4.07,79,100,1.38,RU,1682428968
205,koubia,11.5833,-11.9,36.75,16,0,3.39,GN,1682428969
206,mutsu,41.2894,141.2169,8.54,62,100,7.26,JP,1682428969
207,wloszczowa,50.8526,19.9659,9.04,69,100,4.33,PL,1682428969
208,ambon,-3.6954,128.1814,29.42,87,40,3.09,ID,1682428970
209,niamey,13.5137,2.1098,42.16,7,0,4.12,NE,1682428970
210,riohacha,11.5444,-72.9072,28.06,69,0,3.6,CO,1682428970
211,labuan,5.2767,115.2417,28.2,83,20,0.0,MY,1682428971
212,rio gallegos,-51.6226,-69.2181,5.03,75,0,10.8,AR,1682428971
213,paradip garh,20.3167,86.6167,24.28,70,100,6.52,IN,1682428773
214,udachny,66.4167,112.4,-6.74,93,100,5.1,RU,1682428971
215,el calafate,-50.3408,-72.2768,5.55,79,5,1.97,AR,1682428972
216,bodaybo,57.8506,114.1933,-4.24,92,94,0.7,RU,1682428935
217,turabah,21.2141,41.6331,25.08,39,95,9.02,SA,1682428972
218,margaret river,-33.95,115.0667,14.72,77,100,10.27,AU,1682428972
219,mina clavero,-31.721,-65.0062,13.32,99,0,1.32,AR,1682428972
220,villa ojo de agua,-29.5,-63.6938,16.02,81,3,2.71,AR,1682428972
221,kolonia,50.9333,6.95,12.76,48,20,5.66,DE,1682428973
222,nouadhibou,20.931,-17.0347,22.99,68,0,7.72,MR,1682428973
223,pivijay,10.4617,-74.6162,27.58,69,16,1.91,CO,1682428973
224,hammerfest,70.6634,23.6821,1.25,75,75,2.57,NO,1682428907
225,pampa,35.5362,-100.9599,10.53,87,100,2.57,US,1682428974
226,paros,37.0833,25.15,21.77,59,0,6.17,GR,1682428974
227,belmonte,-15.8631,-38.8828,25.86,78,56,3.3,BR,1682428975
228,nambucca heads,-30.65,153.0,16.2,68,100,1.51,AU,1682428975
229,hohhot,40.8106,111.6522,5.16,26,0,3.0,CN,1682428975
230,ancud,-41.8697,-73.8203,11.4,98,100,3.47,CL,1682428907
231,weno,7.4515,151.8468,25.97,94,100,1.54,FM,1682428976
232,isangel,-19.55,169.2667,25.09,76,67,2.42,VU,1682428976
233,tabuk,17.4189,121.4443,25.39,80,94,2.38,PH,1682428976
234,hirara,24.8,125.2833,22.92,88,100,7.2,JP,1682428908
235,port alfred,-33.5906,26.891,22.32,79,90,1.79,ZA,1682428977
236,colonia,50.9333,6.95,12.76,48,20,5.66,DE,1682428978
237,sharkan,57.2989,53.8712,20.27,32,22,4.77,RU,1682428978
238,mahina,-17.5065,-149.489,24.87,88,75,6.17,PF,1682428978
239,happy valley-goose bay,53.3168,-60.3315,7.17,61,20,1.03,CA,1682428978
240,rawson,-43.3002,-65.1023,18.13,36,100,2.8,AR,1682428979
241,vadso,70.0744,29.7487,2.09,64,0,12.35,NO,1682428979
242,tambopata,-12.7333,-69.1833,25.94,83,75,1.54,PE,1682428979
243,karratha,-20.7377,116.8463,27.65,53,100,4.75,AU,1682428979
244,dwarka,22.2394,68.9678,28.1,73,97,8.79,IN,1682428979
245,middlebury (village),44.0153,-73.1673,7.14,95,100,0.0,US,1682428979
246,flying fish cove,-10.4217,105.6791,27.17,78,13,4.58,CX,1682428895
247,kimbe,-5.5502,150.1429,25.94,87,97,0.83,PG,1682428846
248,muang phonsavan,19.45,103.2167,20.16,86,98,2.11,LA,1682428980
249,hlohovec,48.4317,17.8031,14.74,56,90,5.41,SK,1682428980
250,mitchell,43.7094,-98.0298,3.74,65,0,3.6,US,1682428980
251,zouerate,22.7187,-12.4521,33.78,13,6,4.66,MR,1682428982
252,ilulissat,69.2167,-51.1,1.01,75,75,2.06,GL,1682428904
253,selfoss,63.9331,-20.9971,6.14,48,100,2.86,IS,1682428982
254,dawson creek,55.7666,-120.2362,3.8,45,0,5.14,CA,1682428982
255,talnakh,69.4865,88.3972,2.34,88,50,2.64,RU,1682428983
256,new plymouth,-39.0667,174.0833,14.2,100,32,8.52,NZ,1682428983
257,murghob,38.1702,73.9667,1.35,48,60,3.29,TJ,1682428983
258,tatarsk,55.219,75.9828,14.05,46,36,4.92,RU,1682428983
259,metlili chaamba,32.2667,3.6333,31.73,17,0,4.24,DZ,1682428983
260,pacasmayo,-7.4006,-79.5714,24.17,78,100,3.19,PE,1682428984
261,nicoya,10.1483,-85.452,27.39,72,6,0.93,CR,1682428984
262,barra dos coqueiros,-10.9089,-37.0386,27.01,78,75,3.09,BR,1682428984
263,sinabang,2.4803,96.3801,28.05,77,98,2.05,ID,1682428985
264,tingo maria,-9.2895,-76.0088,22.17,94,75,0.0,PE,1682428985
265,puerto baquerizo moreno,-0.9,-89.6,25.29,80,17,2.51,EC,1682428985
266,nagar karnul,16.4821,78.3247,27.21,61,100,2.72,IN,1682428985
267,aswan,24.0934,32.907,36.38,11,0,7.7,EG,1682428985
268,moab,38.5733,-109.5498,9.16,66,95,1.38,US,1682428985
269,east london,-33.0153,27.9116,22.52,83,75,5.14,ZA,1682428862
270,kailua-kona,19.6406,-155.9956,23.98,81,75,2.68,US,1682428986
271,alofi,-19.0595,-169.9187,18.94,100,99,0.51,NU,1682428986
272,port augusta,-32.5,137.7667,21.61,41,100,3.33,AU,1682428987
273,santyoku,37.4406,129.1708,10.09,84,100,1.86,KR,1682428987
274,as samawah,31.332,45.2944,31.43,19,0,3.77,IQ,1682428987
275,aykhal,66.0,111.5,-7.26,95,100,4.59,RU,1682428931
276,shelton,41.3165,-73.0932,12.59,62,0,2.57,US,1682428988
277,ko lanta,7.5336,99.0865,29.2,74,98,3.07,TH,1682428988
278,victorica,-36.2151,-65.4359,17.09,63,0,4.93,AR,1682428988
279,gadzhiyevo,69.2551,33.3362,0.27,70,0,9.01,RU,1682428988
280,ercis,39.0287,43.3586,12.39,32,42,2.15,TR,1682428988
281,nemuro,43.3236,145.575,3.74,87,100,5.15,JP,1682428809
282,chita,52.0333,113.55,3.94,18,100,3.0,RU,1682428942
283,kapuskasing,49.4169,-82.4331,-2.95,93,100,4.63,CA,1682428879
284,muisne,0.6,-80.0333,26.09,80,91,1.54,EC,1682428989
285,nuku'alofa,-21.1333,-175.2,25.1,75,100,7.02,TO,1682428731
286,thinadhoo,0.5333,72.9333,29.31,73,100,4.31,MV,1682428989
287,dakhla,23.6848,-15.958,20.01,77,48,8.75,EH,1682428989
288,chui,-33.6971,-53.4616,20.06,88,100,3.17,UY,1682428706
289,boyes hot springs,38.3138,-122.4819,11.08,81,16,0.86,US,1682428990
290,jiayuguan,39.8167,98.3,16.47,11,2,0.28,CN,1682428990
291,carnarvon,-24.8667,113.6333,19.56,54,40,7.14,AU,1682428831
292,mutare,-18.9707,32.6709,27.38,28,0,3.67,ZW,1682428863
293,ak'ordat,15.5486,37.8867,38.81,14,24,4.06,ER,1682428990
294,fale old settlement,-9.3852,-171.2468,28.78,75,100,4.02,TK,1682428899
295,puerto quijarro,-17.7833,-57.7667,27.45,72,1,1.26,BO,1682428991
296,dorado,18.4588,-66.2677,29.04,69,40,2.57,PR,1682428992
297,sinop,41.7711,34.8709,11.24,49,99,0.83,TR,1682428728
298,miyako,39.6367,141.9525,7.73,60,100,4.86,JP,1682428730
299,yerofey pavlovich,53.9667,121.9667,-1.65,53,100,1.07,RU,1682428993
300,hamilton,39.1834,-84.5333,8.27,63,75,3.6,US,1682428802
301,nieuw amsterdam,5.8833,-55.0833,29.01,70,20,2.06,SR,1682428994
302,ciudad lazaro cardenas,17.9583,-102.2,24.11,74,100,1.86,MX,1682428995
303,hithadhoo,-0.6,73.0833,28.51,75,99,4.0,MV,1682428995
304,waiuku,-37.25,174.75,16.85,73,100,5.68,NZ,1682428995
305,kondopoga,62.2057,34.2614,10.82,65,31,2.92,RU,1682428996
306,revda,56.801,59.9303,18.5,37,4,3.83,RU,1682428996
307,verkhniy mamon,50.1635,40.3832,13.9,81,95,1.05,RU,1682428996
308,cooper's town,26.8667,-77.5167,23.73,75,7,6.97,BS,1682428996
309,palikir - national government center,6.9248,158.1611,24.41,94,20,0.0,FM,1682428996
310,mount pearl,47.5166,-52.7813,2.69,96,100,8.23,CA,1682428996
311,thanatpin,17.2119,96.3033,35.1,29,11,3.31,MM,1682428996
312,waliso,8.5333,37.9833,21.04,54,100,4.18,ET,1682428997
313,gloucester,51.8657,-2.2431,12.65,52,40,2.06,GB,1682428997
314,arraial do cabo,-22.9661,-42.0278,25.98,73,20,3.6,BR,1682428997
315,hasaki,35.7333,140.8333,15.68,60,100,7.86,JP,1682428998
316,saint-joseph,-21.3667,55.6167,26.21,81,71,1.09,RE,1682428998
317,san matias,-16.3667,-58.4,26.42,78,8,2.36,BO,1682428998
318,halifax,44.6453,-63.5724,5.68,71,100,1.54,CA,1682428874
319,korla,41.7597,86.1469,20.54,20,12,3.27,CN,1682428999
320,hotan,37.0997,79.9269,24.46,11,63,2.46,CN,1682428999
321,la ronge,55.1001,-105.2842,2.14,60,75,4.12,CA,1682428894
322,mbeya,-8.9,33.45,20.76,81,94,1.33,TZ,1682429000
323,christchurch,-43.5333,172.6333,13.51,70,20,16.46,NZ,1682428844
324,tazacorte,28.629,-17.9293,23.54,82,20,4.63,ES,1682428892
325,lebu,-37.6167,-73.65,11.65,79,100,0.32,CL,1682429000
326,tual,-5.6667,132.75,28.64,73,20,0.2,ID,1682429000
327,el granada,37.5027,-122.4694,10.49,91,100,2.06,US,1682429000
328,al burayqah,30.4062,19.5739,20.74,57,0,5.4,LY,1682429000
329,shchigry,51.8755,36.9043,13.9,74,100,2.81,RU,1682428925
330,pisco,-13.7,-76.2167,22.03,83,47,0.51,PE,1682429001
331,mizan teferi,6.9833,35.5833,18.33,97,100,1.42,ET,1682429001
332,dabeiba,7.0017,-76.2672,25.44,84,90,0.54,CO,1682429001
333,kaiyuan,23.6977,103.3037,18.39,64,8,3.2,CN,1682429001
334,mugia,43.1041,-9.2179,18.28,94,100,7.03,ES,1682429002
335,maun,-19.9833,23.4167,32.98,29,0,3.09,BW,1682429002
336,sayre,41.979,-76.5155,6.17,97,7,1.51,US,1682429003
337,al wajh,26.2455,36.4525,27.97,54,0,8.75,SA,1682429004
338,badger,64.8,-147.5333,-9.07,59,40,4.63,US,1682429004
339,palopo,-2.9996,120.1921,25.85,84,100,0.89,ID,1682429004
340,arvayheer,46.2639,102.775,7.78,25,99,5.33,MN,1682429004
341,harstad,68.799,16.5293,3.66,63,13,4.47,NO,1682429004
342,bayan,46.0833,127.4,4.59,67,100,0.79,CN,1682429005
343,pacific grove,36.6177,-121.9166,9.82,88,100,1.54,US,1682429005
344,fisterra,42.9049,-9.2629,18.19,93,100,6.27,ES,1682429005
345,nikolayevsk-on-amure,53.1406,140.73,-0.61,81,100,1.67,RU,1682428809
346,lautoka,-17.6167,177.4667,24.92,88,75,0.0,FJ,1682429005
347,porto novo,6.4965,2.6036,31.9,54,100,4.79,BJ,1682429005
348,anshun,26.25,105.9333,11.53,71,9,3.47,CN,1682429006
349,manicore,-5.8092,-61.3003,24.97,88,75,2.06,BR,1682429006
350,las tablas,7.7667,-80.2833,28.43,99,4,1.56,PA,1682429006
351,faya-largeau,17.9257,19.1043,42.94,9,0,3.09,TD,1682429006
352,dunkwa,5.9656,-1.78,36.37,42,52,1.2,GH,1682429006
353,kerikeri,-35.2268,173.9474,11.06,93,0,2.01,NZ,1682429006
354,tarinkot,32.6268,65.8733,27.31,11,100,4.99,AF,1682429007
355,nizhnyaya poyma,56.1622,97.1933,0.03,74,100,5.41,RU,1682429007
356,tabas,33.5959,56.9244,35.12,12,18,4.12,IR,1682429007
357,dubbo,-32.25,148.6167,16.07,67,0,4.63,AU,1682428817
358,tamanrasset,22.785,5.5228,29.95,9,0,2.06,DZ,1682429007
359,usogorsk,63.4106,48.6872,2.78,95,98,1.51,RU,1682428885
360,mitu,1.1983,-70.1733,25.25,80,99,1.01,CO,1682429008
361,bakanas,44.8081,76.2772,18.27,28,0,8.19,KZ,1682429009
362,mhamid,29.82,-5.72,35.33,9,0,4.85,MA,1682429009
363,fushun,41.8558,123.9233,2.84,95,100,7.09,CN,1682429009
364,alice town,25.7167,-79.3,24.86,73,6,5.51,BS,1682429010
365,benghazi,32.1167,20.0667,20.96,49,0,5.11,LY,1682429010
366,saint-leu,-21.15,55.2833,26.48,97,22,2.48,RE,1682429010
367,chernyshevskiy,63.0128,112.4714,-6.13,97,100,1.38,RU,1682429010
368,laksham,23.2472,91.1425,30.48,36,0,2.13,BD,1682429010
369,altay,47.8667,88.1167,6.31,55,20,6.42,CN,1682429010
370,solnechnyy,50.7214,136.6319,1.27,86,100,0.7,RU,1682429011
371,mount isa,-20.7333,139.5,19.87,60,40,0.0,AU,1682429011
372,petrolina,-9.3986,-40.5008,27.03,61,75,4.63,BR,1682429011
373,seminole,28.7086,-81.2081,24.45,90,100,1.54,US,1682429012
374,at-bashi,41.1702,75.8106,9.84,59,97,3.44,KG,1682429013
375,dampit,-8.2116,112.7493,22.85,97,98,0.61,ID,1682429015
376,onverwacht,5.5833,-55.1833,28.92,74,40,1.54,SR,1682429015
377,coquimbo,-29.9533,-71.3436,12.85,100,100,1.03,CL,1682429016
378,kudahuvadhoo,2.6708,72.8944,29.23,71,100,3.77,MV,1682429016
379,vilyuchinsk,52.9306,158.4028,1.15,80,37,4.24,RU,1682428901
380,copala,16.65,-98.9833,24.34,75,99,1.28,MX,1682429019
381,chibougamau,49.9168,-74.3659,2.79,93,100,5.14,CA,1682429020
382,dunhua,43.3725,128.2425,6.31,62,100,1.19,CN,1682429022
383,paracuru,-3.41,-39.0306,29.5,73,92,4.24,BR,1682429024
384,reyes,-14.3167,-67.3833,24.25,87,98,0.2,BO,1682429024
385,ambalangoda,6.2355,80.0538,27.93,76,100,1.02,LK,1682429025
386,tudor vladimirescu,45.5667,27.65,17.35,59,98,1.55,RO,1682429026
387,canning,22.3189,88.6714,31.01,39,100,3.9,IN,1682429026
388,alvear,-29.0968,-56.5504,19.43,86,100,2.8,AR,1682429026
389,constitucion,-35.3333,-72.4167,13.63,69,100,1.26,CL,1682429026
390,hepo,23.4308,115.8299,18.32,83,93,2.88,CN,1682429027
391,andergrove,-21.0833,149.1833,22.58,74,15,8.87,AU,1682429027
392,lauro de freitas,-12.8944,-38.3272,30.01,62,40,4.12,BR,1682429027
393,juan griego,11.0817,-63.9655,27.6,72,92,2.21,VE,1682429028
394,mirnyy,62.5353,113.9611,-4.41,95,100,2.99,RU,1682429007
395,lorengau,-2.0226,147.2712,28.06,78,69,3.09,PG,1682429028
396,sabancuy,18.9667,-91.1833,25.67,82,40,1.81,MX,1682429029
397,sao jose da coroa grande,-8.8978,-35.1478,27.47,77,94,3.56,BR,1682429029
398,namibe,-15.1961,12.1522,26.96,61,15,3.57,AO,1682429029
399,okhotsk,59.3833,143.3,-2.78,95,99,3.2,RU,1682428903
400,semnan,35.5729,53.3971,28.6,19,69,8.13,IR,1682429030
401,dengzhou,37.8086,120.7508,9.05,85,44,7.24,CN,1682429030
402,ha tinh,18.3333,105.9,23.21,92,100,5.25,VN,1682428780
403,cherdyn',60.403,56.4787,19.18,37,63,3.68,RU,1682429030
404,belyy yar,53.6039,91.3903,1.94,30,0,5.0,RU,1682429030
405,shani,10.2162,12.062,39.72,18,100,2.3,NG,1682429030
406,rabaul,-4.1967,152.1721,27.02,79,62,1.18,PG,1682429031
407,piacabucu,-10.4056,-36.4344,27.52,75,39,3.8,BR,1682429031
408,taki,22.5861,88.9214,30.97,32,100,1.39,IN,1682429031
409,arica,-18.475,-70.3042,21.75,73,0,1.03,CL,1682429032
410,palapag,12.5458,125.1147,25.64,80,100,2.06,PH,1682429032
411,bousso,10.4795,16.7117,40.74,19,100,3.44,TD,1682429032
412,la'ie,21.6477,-157.9253,22.98,85,85,5.56,US,1682428910
413,acapulco de juarez,16.8634,-99.8901,23.9,88,75,2.06,MX,1682429032
414,taltal,-25.4,-70.4833,19.8,69,1,2.42,CL,1682429032
415,wuhai,39.6647,106.8122,15.52,26,72,2.23,CN,1682429033
416,vila franca do campo,37.7167,-25.4333,18.23,92,77,4.14,PT,1682428902
417,viedma,-40.8135,-62.9967,18.94,45,5,6.39,AR,1682429033
418,sakaiminato,35.55,133.2333,10.99,100,75,1.54,JP,1682429015
419,puning,23.3107,116.1687,20.31,79,66,3.03,CN,1682429034
420,vila velha,-20.3297,-40.2925,25.97,85,40,3.09,BR,1682429034
421,ignalina,55.35,26.1667,15.74,58,88,5.3,LT,1682429034
422,upata,8.0086,-62.3989,22.88,89,100,1.82,VE,1682428813
423,taikang,46.8333,124.4167,4.55,25,1,1.11,CN,1682429034
424,shevchenko,48.5,35.0,17.3,48,50,2.36,UA,1682429034
425,nerekhta,57.4588,40.5747,19.94,41,100,2.81,RU,1682429035
426,vangviang,18.9333,102.45,26.84,65,98,0.83,LA,1682429035
427,port lavaca,28.615,-96.6261,23.03,88,100,3.6,US,1682429035
428,sao miguel do araguaia,-13.275,-50.1628,27.49,59,5,3.29,BR,1682429035
429,ponta delgada,37.7333,-25.6667,18.4,94,75,3.6,PT,1682429035
430,kendari,-3.945,122.4989,25.58,90,87,0.78,ID,1682429036
431,mendefera,14.8872,38.8153,26.62,30,99,6.74,ER,1682429036
432,aracuai,-16.8497,-42.0703,27.19,54,55,2.42,BR,1682429036
433,bhamo,24.2667,97.2333,29.31,32,16,0.87,MM,1682429036
434,qarauyl,48.9451,79.255,10.72,41,6,2.95,KZ,1682429037
435,sisimiut,66.9395,-53.6735,0.93,100,100,2.47,GL,1682429037
436,peniche,39.3558,-9.3811,24.49,73,44,3.78,PT,1682429037
437,candeleda,40.1552,-5.2405,29.67,32,69,3.58,ES,1682429037
438,burang,30.25,81.1667,-1.89,84,79,2.11,CN,1682429038
439,la palma,33.8464,-118.0467,16.29,87,100,2.57,US,1682429039
440,gokwe,-18.2048,28.9349,31.6,17,5,1.59,ZW,1682428863
441,kharp,66.8014,65.8081,-2.54,83,3,3.28,RU,1682429039
442,pemba,-12.974,40.5178,27.62,67,0,7.15,MZ,1682429039
443,awjilah,29.1081,21.2869,31.58,14,8,4.98,LY,1682429040
444,al kharj,24.155,47.3346,35.32,16,3,4.79,SA,1682429041
445,khoyniki,51.8911,29.9552,17.89,38,92,4.53,BY,1682429041
446,anchau,10.9597,8.3916,37.9,15,89,3.01,NG,1682428843
447,desnogorsk,54.1508,33.2815,15.73,52,100,2.04,RU,1682428785
448,klaksvik,62.2266,-6.589,2.51,63,99,8.54,FO,1682429042
449,goulburn,-34.75,149.7167,8.21,94,6,0.89,AU,1682429042
450,east ballina,-28.8667,153.5833,16.56,66,54,5.22,AU,1682429042
451,puerto deseado,-47.7503,-65.8938,10.46,70,100,3.93,AR,1682429043
452,tomohon,1.3346,124.8392,21.52,92,40,0.25,ID,1682429043
453,abra pampa,-22.7205,-65.697,8.58,26,0,1.26,AR,1682429043
454,yarmouth,41.7057,-70.2286,11.19,87,100,2.68,US,1682429044
455,kavaratti,10.5669,72.642,28.21,67,71,3.55,IN,1682429044
456,pitsea,51.5639,0.5086,10.74,49,40,3.09,GB,1682429044
457,nagqu,31.5,92.0,-3.14,79,100,2.09,CN,1682429045
458,lityn,49.3251,28.0809,15.38,59,100,7.53,UA,1682429045
459,geidam,12.897,11.9304,41.32,10,58,3.14,NG,1682429045
460,alakurtti,66.9672,30.3491,0.79,87,82,1.7,RU,1682429045
461,altamira,-3.2033,-52.2064,31.05,70,40,1.54,BR,1682429049
462,akureyri,65.6835,-18.0878,-1.04,64,75,2.06,IS,1682429049
463,dolbeau-mistassini,48.8763,-72.212,3.36,91,100,4.18,CA,1682429051
464,newman,37.3138,-121.0208,12.94,80,12,0.89,US,1682429051
465,muli,2.9167,73.5667,29.29,72,91,4.13,MV,1682429051
466,kudat,6.8837,116.8477,29.96,79,20,2.06,MY,1682429051
467,puerto armuelles,8.2833,-82.8667,25.99,79,10,1.29,PA,1682429051
468,richmond,37.5538,-77.4603,10.68,59,75,5.14,US,1682429052
469,kidal,18.4411,1.4078,37.16,6,0,5.73,ML,1682429052
470,mersa matruh,31.3525,27.2453,21.59,60,0,6.69,EG,1682429052
471,bonthe,7.5264,-12.505,31.58,63,100,4.56,SL,1682429052
472,imeni morozova,59.9757,31.0376,22.02,35,92,4.57,RU,1682429052
473,redencao,-4.2258,-38.7306,27.97,75,41,2.42,BR,1682429053
474,salida,37.7058,-121.0849,13.95,80,0,5.14,US,1682429053
475,salalah,17.0151,54.0924,31.05,66,20,7.2,OM,1682429053
476,nyurba,63.2842,118.3319,-5.89,97,99,1.2,RU,1682429053
477,lethem,3.3803,-59.7968,23.57,93,100,1.06,GY,1682429053
478,campina verde,-19.5356,-49.4864,24.98,62,8,3.53,BR,1682429054
479,fort bragg,35.139,-79.006,15.46,75,0,1.54,US,1682429054
480,vydrino,51.485,104.8461,-0.62,77,18,0.89,RU,1682429055
481,trinity beach,-16.7888,145.6968,23.9,90,40,5.14,AU,1682429055
482,puerto ayacucho,5.6639,-67.6236,23.27,95,100,2.08,VE,1682429055
483,essaouira,31.5125,-9.77,27.72,47,0,4.12,MA,1682429055
484,al ghayzah,16.2079,52.176,30.61,59,2,7.76,YE,1682429056
485,madang,-5.2246,145.7966,26.34,86,100,1.02,PG,1682429056
486,santiago,-33.4569,-70.6483,24.05,47,0,1.54,CL,1682429056
487,kulpahar,25.3167,79.65,32.92,19,39,3.99,IN,1682429056
488,tucuma,-0.1833,-50.05,27.2,84,93,2.81,BR,1682429056
489,usinsk,65.9939,57.5281,0.23,78,20,3.7,RU,1682429057
490,luderitz,-26.6481,15.1594,22.78,61,0,8.15,NA,1682428900
491,smithers,54.7804,-127.1743,2.18,80,100,1.03,CA,1682429058
492,malango,-2.9627,119.9001,20.61,98,96,0.56,ID,1682429058
493,sao joao da boa vista,-21.9692,-46.7981,22.23,60,4,0.86,BR,1682429058
494,maracaju,-21.6144,-55.1683,22.88,84,84,3.1,BR,1682429058
495,tindouf,27.6711,-8.1474,36.91,9,6,7.1,DZ,1682429059
496,hadibu,12.65,54.0333,29.44,61,100,1.08,YE,1682428803
497,kembe,4.6228,21.8865,33.34,41,100,0.18,CF,1682429059
498,sechelt,49.4664,-123.7694,9.0,87,100,0.8,CA,1682429059
499,funafuti,-8.5243,179.1942,29.0,84,20,0.0,TV,1682429060
500,valdivia,-39.8142,-73.2459,8.05,87,100,0.4,CL,1682429060
501,madalena,41.2162,-8.3345,21.53,66,89,2.97,PT,1682429061
502,kirensk,57.7853,108.1119,-0.01,94,100,1.91,RU,1682429061
503,turkestan,43.3333,68.25,23.08,19,0,10.38,KZ,1682429061
504,kiffa,16.6166,-11.4045,40.57,8,5,3.61,MR,1682429061
505,bhanpuri,21.1,80.9167,26.51,62,100,7.97,IN,1682429061
506,jalalaqsi,3.3766,45.5996,33.48,44,100,4.67,SO,1682429061
507,machakos,-1.5167,37.2667,21.97,79,100,2.56,KE,1682429061
508,upington,-28.4478,21.2561,29.21,28,20,2.06,ZA,1682429062
509,berriozar,42.8429,-1.6697,21.79,59,40,5.66,ES,1682429062
510,kapit,2.0167,112.9333,25.26,93,100,0.21,MY,1682429062
511,mazsalaca,57.8633,25.0547,18.29,39,72,4.22,LV,1682429062
512,nar'yan-mar,67.6713,53.087,-0.58,87,13,6.42,RU,1682429062
513,jiujiang,29.7333,115.9833,12.73,84,36,3.08,CN,1682429063
514,inarajan village,13.2736,144.7484,27.54,93,38,7.0,GU,1682428901
515,say,13.1007,2.3689,42.31,12,12,2.62,NE,1682429063
516,cidreira,-30.1811,-50.2056,22.27,71,100,5.61,BR,1682429063
517,chatham,51.3789,0.5279,10.76,47,89,1.34,GB,1682429063
518,broken hill,-31.95,141.4333,19.52,46,67,4.36,AU,1682429064
519,gaiman,-43.2897,-65.4929,18.68,29,100,3.18,AR,1682429064
520,minas de marcona,-15.2119,-75.1103,18.11,76,23,4.05,PE,1682428899
521,nago,26.5881,127.9761,21.92,90,64,3.87,JP,1682429064
522,ujae,8.9322,165.7642,25.38,85,100,6.97,MH,1682429064
523,anta,25.15,76.3,33.77,17,5,2.93,IN,1682428773
524,hola,51.5377,23.1902,12.68,100,94,3.85,PL,1682429065
525,yaren,-0.5472,166.916,28.2,72,91,4.01,NR,1682429065
526,lake albert,-35.1667,147.3833,13.12,75,2,1.3,AU,1682429065
527,port isabel,26.0734,-97.2086,23.37,95,75,4.12,US,1682429065
528,san julian,21.0167,-102.1667,13.33,26,88,2.37,MX,1682429065
529,turbana,10.2717,-75.4422,26.45,68,53,2.19,CO,1682429065
530,kostomuksha,64.571,30.5767,-0.05,99,100,4.27,RU,1682428771
531,rouissat,31.9243,5.3502,34.06,12,0,3.95,DZ,1682429066
532,nizhneangarsk,55.7833,109.55,-4.72,77,87,2.43,RU,1682429066
533,olyokminsk,60.3736,120.4264,-2.99,91,100,1.06,RU,1682429066
534,sabang,5.8933,95.3214,29.36,76,48,5.48,ID,1682429066
535,san blas,21.5167,-105.2667,11.94,56,100,1.51,MX,1682429066
536,al abyar,32.19,20.5965,25.29,21,0,6.34,LY,1682429066
537,naifaru,5.4444,73.3657,29.31,70,68,4.15,MV,1682429067
538,nuevo ideal,24.8875,-105.0728,9.75,47,100,2.79,MX,1682429067
539,shenjiamen,29.9576,122.298,13.12,82,100,6.34,CN,1682429067
540,arar,30.9753,41.0381,32.01,10,20,4.12,SA,1682429068
541,montecristi,-1.05,-80.6667,24.9,83,40,2.57,EC,1682429068
542,choibalsan,48.0667,114.5,6.68,18,100,4.56,MN,1682429068
543,port alberni,49.2413,-124.8028,8.91,91,100,1.34,CA,1682429068
544,mukalla,14.5425,49.1242,30.09,60,59,4.26,YE,1682429068
545,samraong,12.4526,105.5873,30.69,53,100,1.21,KH,1682429069
546,codrington,-38.2667,141.9667,16.45,65,92,3.26,AU,1682429070
547,wuyang,31.9925,116.2472,11.53,82,0,3.12,CN,1682429071
548,rio grande,-32.035,-52.0986,20.06,77,98,4.82,BR,1682429071
549,kiunga,-6.1219,141.2906,24.16,98,100,0.88,PG,1682429071
550,grojec,51.8625,20.8676,10.26,86,100,4.11,PL,1682429071
551,el haouaria,37.05,11.0144,24.01,55,100,4.95,TN,1682429072
552,howrah,22.5892,88.3103,31.0,62,75,0.0,IN,1682429072
553,daru,-9.0763,143.2092,26.98,87,100,5.68,PG,1682429072
554,caleta de carquin,-11.0925,-77.6267,23.45,81,100,3.1,PE,1682429072
555,rimouski,48.4488,-68.524,4.1,76,100,2.25,CA,1682429001
556,colgong,25.2667,87.2167,32.65,26,62,2.66,IN,1682429072
557,bandarbeyla,9.4942,50.8122,30.59,64,99,7.44,SO,1682429073
558,pangody,65.85,74.4859,-1.45,86,100,3.22,RU,1682429073
559,prince rupert,54.3161,-130.3201,4.83,92,75,4.12,CA,1682429073
560,myeik,12.4333,98.6,29.03,76,100,3.09,MM,1682429073
561,rivne,50.6231,26.2274,13.93,82,100,3.75,UA,1682429073
562,suva,-18.1416,178.4415,23.71,94,75,0.0,FJ,1682429073
563,campbell river,50.0163,-125.2446,7.74,100,75,1.54,CA,1682429074
564,ballynahinch,54.4,-5.8833,8.97,65,99,3.31,GB,1682429074
565,kundiawa,-6.0167,144.9667,17.87,99,100,1.08,PG,1682429074
566,arteche,12.2645,125.4048,25.64,84,99,2.19,PH,1682428951
567,suomussalmi,64.8869,28.9078,0.06,98,100,4.53,FI,1682429074
568,bijie,27.3125,105.2942,11.0,71,8,0.08,CN,1682429075
569,fonte boa,-2.4959,-66.2662,23.0,97,100,0.36,BR,1682429075
570,nuuk,64.1835,-51.7216,1.34,93,100,8.23,GL,1682429076
571,al bardiyah,31.7561,25.0865,20.76,62,0,6.5,LY,1682429076
572,antanifotsy,-19.65,47.3167,21.85,55,0,0.17,MG,1682428839
573,mancio lima,-7.6142,-72.8958,24.04,100,100,0.0,BR,1682429076
574,saudarkrokur,65.7461,-19.6394,0.71,45,47,2.01,IS,1682429076
